Station,Lat,Long,Town,River,High Level,Color
Bourton Dickler,51.874767,-1.740083,Little Rissington,Dikler,0.42,"rgba(0, 204, 0)"
Surfleet Sluice,52.845991,-0.100848,Surfleet Seas End,River Glen,0.895,"rgba(255, 0, 0)"
Gaw Bridge,50.976043,-2.793549,Kingsbury Episcopi,River Parrett,0.971,"rgba(255, 0, 0)"
Hemingford,52.323618,-0.101287,Hemingford Grey,River Great Ouse,0.32,"rgba(0, 204, 0)"
Swindon,52.51274,-2.205945,Swindon,Smestow Brook,1.336,"rgba(255, 0, 0)"
A6 Bridge,53.858854,-2.743276,Bilsborrow,Brock,1.3,"rgba(255, 0, 0)"
Hatterell Bridge,50.965045,-0.323238,West Grinstead,Adur,0.95,"rgba(255, 0, 0)"
Netherside Hall,54.080705,-2.024779,Netherside Hall,River Wharfe,3,"rgba(255, 0, 0)"
Ardingly,51.038451,-0.100268,Ardingly,Ouse [So],0.6,"rgba(255, 194, 0)"
Letcombe Regis,51.571482,-1.449342,Letcombe Regis,Letcombe Brook,0.71,"rgba(255, 194, 0)"
Bradley Bridge,51.521892,-2.521122,Winterbourne,Bradley Brook,0.543,"rgba(255, 194, 0)"
Lovington,51.083697,-2.586936,Lovington,River Brue,2.16,"rgba(255, 0, 0)"
Goulceby,53.296901,-0.131922,Goulceby,Bain,0.35,"rgba(0, 204, 0)"
Northern Moor,53.407591,-2.294665,Northern Moor,Baguley Brook,0.267,"rgba(0, 204, 0)"
Collyhurst Weir,53.493682,-2.229815,Manchester,Irk,0.287,"rgba(0, 204, 0)"
Haslingfield Burnt Mill,52.151539,0.067146,Haslingfield,River Rhee,0.4,"rgba(0, 204, 0)"
"Pinner, Eastcote Road",51.589297,-0.381167,Pinner,Pinn,1,"rgba(255, 0, 0)"
Pickering,54.246377,-0.778392,Pickering,Pickering Beck,1,"rgba(255, 0, 0)"
Chineham,51.296962,-1.056426,Chineham,Petty's Brook,1.745,"rgba(255, 0, 0)"
"Luton, Toddington Road",51.908463,-0.46427,Leagrave,Lee (Upper),0.9,"rgba(255, 0, 0)"
Salisbury Ashley Road,51.076527,-1.803528,Salisbury,River Avon,0.48,"rgba(0, 204, 0)"
Yeaton,52.76777,-2.839715,Yeaton,River Perry,0.7,"rgba(255, 194, 0)"
Kingston,51.415005,-0.308869,Kingston Upon Thames,Thames,5.15,"rgba(255, 0, 0)"
"Addingham, Town Beck",53.944393,-1.886441,Addingham,River Wharfe,1,"rgba(255, 0, 0)"
Newbridge Weir B,51.713499,-1.420988,Standlake,Windrush,0.349,"rgba(0, 204, 0)"
Litton Cheney,50.710758,-2.638832,Litton Cheney,Litton Cheney Stream,0.5,"rgba(255, 194, 0)"
Rede Bridge,55.142955,-2.208614,Redesmouth,River Rede,2,"rgba(255, 0, 0)"
Rochdale ETW,53.611067,-2.178685,Rochdale,Roch,1.23,"rgba(255, 0, 0)"
Twyford Bridge,53.26962,-0.952008,Elkesley,River Poulter,1.42,"rgba(255, 0, 0)"
Rolster Bridge,50.393426,-3.73051,Harbertonford,River Harbourne,1,"rgba(255, 0, 0)"
Bragbury Park,51.874477,-0.149495,Bragbury End,Stevenage Brook,0.65,"rgba(255, 194, 0)"
Lugwardine,52.061919,-2.659977,Lugwardine,Lugg,2.4,"rgba(255, 0, 0)"
Fleet Pumping Station,53.851912,-1.157795,Ryther,River Wharfe,6.5,"rgba(255, 0, 0)"
Darfield Bridge,53.536358,-1.366253,Darfield,River Dearne,3.06,"rgba(255, 0, 0)"
Merrywalks,51.746918,-2.217953,Stroud,Slad Brook,0.35,"rgba(0, 204, 0)"
Great Glen,52.574167,-1.035067,Great Glen,River Sence (Soar),1.22,"rgba(255, 0, 0)"
Prestbury,53.289231,-2.148611,Prestbury,Bollin,1.26,"rgba(255, 0, 0)"
Victoria Bridge - New,54.330571,-2.742287,"Victoria Bridge, Kendal",River Kent,1.578,"rgba(255, 0, 0)"
Bitton,51.426965,-2.459703,Bitton,River Boyd,0.399,"rgba(0, 204, 0)"
Walford Mill,50.805852,-1.990007,Wimborne Minster,River Allen,0.546,"rgba(255, 194, 0)"
Dawlish,50.580497,-3.472207,Dawlish,Dawlish Water,0.34,"rgba(0, 204, 0)"
Aston Bridge,52.877141,-1.759128,Sudbury,River Dove,1.555,"rgba(255, 0, 0)"
Claypole,53.022669,-0.746145,Claypole,Upper Witham,0.62,"rgba(255, 194, 0)"
Little Alne,52.247533,-1.793996,Little Alne,River Alne,1.329,"rgba(255, 0, 0)"
Alwinton Bridge,55.344803,-2.122952,Alwinton,River Coquet,1.6,"rgba(255, 0, 0)"
Heacham,52.908305,0.504442,Heacham,Heacham River,0.133,"rgba(0, 204, 0)"
Rewe,50.782406,-3.496159,Rewe,River Culm,1.154,"rgba(255, 0, 0)"
Kirkburton Riley Lane,53.60958,-1.705229,Kirkburton,Dean Bottom Beck,0.72,"rgba(255, 194, 0)"
Brigg,53.550068,-0.501979,Brigg,Ancholme,2.38,"rgba(255, 0, 0)"
North America,53.7781,-0.713178,North America,Market Weighton Canel,1.5,"rgba(255, 0, 0)"
Romanby,54.336432,-1.450586,Romanby,Willow Beck,1.2,"rgba(255, 0, 0)"
Hungerford Shalbourne,51.412847,-1.526019,Hungerford,River Shalbourne,0.6,"rgba(255, 194, 0)"
Temple Sowerby,54.648336,-2.614388,Temple Sowerby,Eden,3.3,"rgba(255, 0, 0)"
Highbridge weir,50.990287,-1.335564,Colden Common,Itchen,0.75,"rgba(255, 194, 0)"
"Walthamstow, Low Hall",51.574894,-0.043637,Walthamstow,Lee (Lower),1,"rgba(255, 0, 0)"
Denton Holme,54.885739,-2.937513,Carlisle,Caldew,2.7,"rgba(255, 0, 0)"
Sinnington,54.262449,-0.859287,Sinnington,River Seven,1.3,"rgba(255, 0, 0)"
Worsbrough,53.526193,-1.473913,Worsbrough,River Dove,0.295,"rgba(0, 204, 0)"
Ulpha,54.341859,-3.218047,Hall Dunnerdale,Duddon,1.5,"rgba(255, 0, 0)"
Slea Tilting Gate,52.998853,-0.408576,Sleaford,Slea,0.382,"rgba(0, 204, 0)"
Bristol Harbour Passage Street,51.45411,-2.586653,Bristol Harbour Passage Street,Bristol Frome,6.7,"rgba(255, 0, 0)"
Copley Bridge,53.697959,-1.873488,Copley,River Calder,3.8,"rgba(255, 0, 0)"
Denham Colne,51.56631,-0.483905,Denham,Colne,0.4,"rgba(0, 204, 0)"
Lenton,52.948176,-1.183337,Lenton,River Leen,1,"rgba(255, 0, 0)"
Worcester (Barbourne),52.206967,-2.235272,Worcester,River Severn,3.35,"rgba(255, 0, 0)"
Allen Mill Bridge,54.904713,-2.265082,Allendale Town,River East Allen,1.8,"rgba(255, 0, 0)"
Scotter,53.498488,-0.664311,Scotter,River Eau,1.75,"rgba(255, 0, 0)"
Eamont Bridge Farm,54.651055,-2.743236,Eamont Bridge,River Eamont,1.7,"rgba(255, 0, 0)"
Harford Hill,52.255374,-2.193909,Salwarpe,River Salwarpe,2,"rgba(255, 0, 0)"
Far Sawrey,54.352722,-2.940028,Mitchell Wyke Ferry Bay,Lake Windermere,0.993,"rgba(255, 0, 0)"
Skip Bridge,53.998678,-1.266199,Kirk Hammerton,River Nidd,2.36,"rgba(255, 0, 0)"
St Michaels,53.863761,-2.817872,St Michael's On Wyre,Wyre,4.725,"rgba(255, 0, 0)"
Laverstock,51.072524,-1.77754,Laverstock,River Bourne,0.568,"rgba(255, 194, 0)"
Chingford,51.619051,0.008836,Chingford,Ching Brook,0.75,"rgba(255, 194, 0)"
Bridge Trafford,53.234132,-2.827991,Bridge Trafford,Gowy,1,"rgba(255, 0, 0)"
Loddiswell,50.31395,-3.800717,Loddiswell,River Avon,1.8,"rgba(255, 0, 0)"
Freshfield Bridge,51.002867,-0.027718,Scayne's Hill,Ouse [So],2,"rgba(255, 0, 0)"
Killamarsh,53.326718,-1.328824,Killamarsh,River Rother,1.48,"rgba(255, 0, 0)"
"Stains, Pounds Mill",51.43615,-0.514892,Staines,Wraysbury River,1.3,"rgba(255, 0, 0)"
Ravenstone Mill Sluice,52.129553,-0.753104,Filgrave,River Great Ouse,1.865,"rgba(255, 0, 0)"
Trowbridge,51.31742,-2.206553,Trowbridge,River Biss,1.4,"rgba(255, 0, 0)"
Caker Stream,51.140148,-0.959908,Alton,Caker Stream,0.52,"rgba(255, 194, 0)"
Islip Sluice,52.401841,-0.5448,Islip,Nene (Wollaston-Wansford),1.845,"rgba(255, 0, 0)"
Aldington Upstream,51.105167,0.948046,Aldington,East Stour Trib  Great Stour,1.732,"rgba(255, 0, 0)"
Abingdon Peachcroft,51.683092,-1.268125,Abingdon,Ock,1.5,"rgba(255, 0, 0)"
Colesbrook,51.049578,-2.276018,Milton On Stour,Shreen Water,0.75,"rgba(255, 194, 0)"
Mansfield The Dykes,53.166753,-1.164236,Mansfield,River Maun,1,"rgba(255, 0, 0)"
Withy Bridge,50.752006,-3.454461,Broadclyst,River Clyst,0.762,"rgba(255, 194, 0)"
Bransford,52.177055,-2.28833,Bransford,River Teme,4.4,"rgba(255, 0, 0)"
Dodford,52.240918,-1.083171,Dodford,Nene - Whitton Branch,1.18,"rgba(255, 0, 0)"
Wharf Mill,51.0582,-1.308338,Winchester,Itchen,0.81,"rgba(255, 0, 0)"
St Erth,50.156881,-5.432918,St Erth,River Hayle,0.8,"rgba(255, 0, 0)"
Thirsk,54.235258,-1.341973,Thirsk,Cod Beck,2,"rgba(255, 0, 0)"
Castleton,54.466168,-0.944968,Castleton,River Esk,2,"rgba(255, 0, 0)"
Portwood,53.42353,-2.141405,Bredbury,Tame,0.422,"rgba(0, 204, 0)"
Ilfracombe Lambda,51.196412,-4.120133,Ilfracombe,East Wilder Brook,0.326,"rgba(0, 204, 0)"
Wanes Blades,53.607043,-2.793103,Newburgh,Douglas,2.75,"rgba(255, 0, 0)"
Bulwell,53.009557,-1.190048,Bulwell,River Leen,1.1,"rgba(255, 0, 0)"
Nutclough,53.744763,-2.010569,Hebden Bridge,Hebden Water,0.97,"rgba(255, 0, 0)"
Rodbourne,51.571821,-1.816698,Haydon Wick,Ray (Wilts),1.32,"rgba(255, 0, 0)"
Edgware Hospital,51.607093,-0.271414,Edgware,Silk Stream,2,"rgba(255, 0, 0)"
Sawbridgeworth,51.812151,0.158674,Sawbridgeworth,Stort,1.45,"rgba(255, 0, 0)"
Witham Friary,51.169425,-2.364153,Witham Friary,Somerset Frome,0.379,"rgba(0, 204, 0)"
Glemsford,52.09308,0.693213,Stanstead,River Glem,1.04,"rgba(255, 0, 0)"
Donington Bridge,52.90501,-0.255888,Bridge End,South Forty Foot,2.59,"rgba(255, 0, 0)"
Saintbridge,51.848419,-2.217412,Gloucester,Twyver,0.042,"rgba(0, 204, 0)"
Horton weir,51.257785,1.030079,Chartham,Great Stour,1,"rgba(255, 0, 0)"
Barnsley,53.560696,-1.473078,Barnsley,River Dearne,1,"rgba(255, 0, 0)"
White Water Dyke,51.121217,0.85627,Kingsnorth,White Water Dyke Tributary  East Stour,0.338,"rgba(0, 204, 0)"
Winsford Road,51.435695,-0.027404,Catford,Pool River,0.75,"rgba(255, 194, 0)"
East Budleigh,50.652217,-3.320001,East Budleigh,Budleigh Brook,0.666,"rgba(255, 194, 0)"
Oulton Broad,52.474903,1.71041,Oulton Broad,River Waveney,1.31,"rgba(255, 0, 0)"
Beggearn Huish,51.14633,-3.373795,Washford,Washford River,0.5,"rgba(255, 194, 0)"
Beaminster,50.807196,-2.739279,Beaminster,River Brit,0.62,"rgba(255, 194, 0)"
Abingdon,51.666656,-1.305189,Abingdon,Ock,0.9,"rgba(255, 0, 0)"
Haltwhistle,54.967781,-2.460104,Haltwhistle,River Tyne,2,"rgba(255, 0, 0)"
Bridge Rule,50.799229,-4.450269,Bridge Rule,River Tamar,2.3,"rgba(255, 0, 0)"
Duffield,52.998306,-1.525391,Windley,River Ecclesbourne,0.9,"rgba(255, 0, 0)"
Sewards Bridge,51.086429,-1.181847,New Alresford,Cheriton Stream,0.6,"rgba(255, 194, 0)"
Evesham,52.092165,-1.942876,Evesham,River Avon,1.9,"rgba(255, 0, 0)"
Butts Bridge,52.226571,-2.730348,Butts Bridge,Lugg,2.6,"rgba(255, 0, 0)"
Zoon's Court Flood Storage,51.868902,-2.196045,Gloucester,Horsbere Brook,0.519,"rgba(255, 194, 0)"
Leasingham Mill,53.022732,-0.379369,Evedon,Slea,0.554,"rgba(255, 194, 0)"
Cockfield,52.135453,0.794489,Cockfield,River Brett,0.75,"rgba(255, 194, 0)"
Beetham Weir,54.218531,-2.774107,Beetham,River Bela,0.669,"rgba(255, 194, 0)"
Crookham Village,51.262934,-0.867562,Crookham Village,Hart,1.36,"rgba(255, 0, 0)"
Marston on Dove,52.855534,-1.648727,Rolleston On Dove,River Dove,1.75,"rgba(255, 0, 0)"
Brendon,51.219143,-3.751991,Brendon,East Lyn River,2.5,"rgba(255, 0, 0)"
Evenlode Bridge,51.95095,-1.679842,Evenlode,Evenlode,1.68,"rgba(255, 0, 0)"
Bodiam Avenue,51.832287,-2.270144,Gloucester,Daniels Brook,0.162,"rgba(0, 204, 0)"
Bray Lock,51.509305,-0.69032,Bray,Thames,3.88,"rgba(255, 0, 0)"
Lexden,51.89895,0.851031,Beacon End,River Colne,1.54,"rgba(255, 0, 0)"
Farnworth,53.557357,-2.388815,Farnworth,Croal,0.7,"rgba(255, 194, 0)"
Kilham's Bridge,51.898975,0.358984,North Wootton,Wallington,3.448,"rgba(255, 0, 0)"
Leek,53.1201,-2.012802,Leek,River Churnet,0.505,"rgba(255, 194, 0)"
Cononley,53.918229,-2.006046,Cononley,River Aire,1.064,"rgba(255, 0, 0)"
"Waltham Abbey, Sewardstone Road",51.681471,0.004958,Waltham Abbey,Cobbins Brook,0.8,"rgba(255, 0, 0)"
St Blazey Station Road,50.361418,-4.715659,St Blazey,St Blazey Stream,0.75,"rgba(255, 194, 0)"
Hudds Mill,52.654318,-0.461033,Stamford,Welland (Stamford - Peakirk),0.344,"rgba(0, 204, 0)"
St Ives,52.317315,-0.072946,St Ives,River Great Ouse,0.355,"rgba(0, 204, 0)"
Welsh Bridge,52.709797,-2.75808,Shrewsbury,River Severn,2.7,"rgba(255, 0, 0)"
Shonks Mill Bridge,51.661693,0.209122,Navestock Heath,Roding,1.8,"rgba(255, 0, 0)"
Threlkeld,54.613784,-3.050496,Threlkeld,Glendermackin,2,"rgba(255, 0, 0)"
Colney Street,51.704664,-0.336052,Colney Street,Ver,0.5,"rgba(255, 194, 0)"
Trengune,50.710701,-4.56631,Trengune,River Ottery,1,"rgba(255, 0, 0)"
Chertsey Lock,51.390617,-0.48637,Chertsey,Thames,0.402,"rgba(0, 204, 0)"
Exwick,50.734613,-3.547352,Exeter,River Exe,2.1,"rgba(255, 0, 0)"
Wakefield Henry Street Br,53.681612,-1.517112,Hedon Westlands Drain,Alverthorpe Beck,0.45,"rgba(0, 204, 0)"
Ladock,50.321143,-4.961751,Ladock,Tresillian River,0.85,"rgba(255, 0, 0)"
Partney,53.187011,0.096794,Partney,Lymn & Steeping,0.74,"rgba(255, 194, 0)"
Levisham Mill,54.299848,-0.717923,Levisham,Levisham Beck,0.27,"rgba(0, 204, 0)"
Maunby,54.270085,-1.467898,Maunby,River Swale,2.134,"rgba(255, 0, 0)"
Tixover,52.587333,-0.568186,Tixover,Welland (Rockingham - Stamford),2.345,"rgba(255, 0, 0)"
Reading,51.461325,-0.967884,Reading,Thames,7,"rgba(255, 0, 0)"
Croft,54.483499,-1.553528,Croft-on-Tees,River Tees,3.5,"rgba(255, 0, 0)"
Knighton Main,51.437409,-1.576981,Whittonditch,Kennet,0.504,"rgba(255, 194, 0)"
Gloucester (Severn),51.864982,-2.252201,Gloucester,River Severn,3.2,"rgba(255, 0, 0)"
Westmill,52.085266,0.665897,Pentlow,River Stour,1.6,"rgba(255, 0, 0)"
Lomeshaye,53.836305,-2.232297,Nelson,River Calder,2.385,"rgba(255, 0, 0)"
Whittington,53.266027,-1.410737,Old Whittington,River Rother,1.5,"rgba(255, 0, 0)"
Witcombe,51.840037,-2.142115,Gloucester,Horsbere Brook,0.356,"rgba(0, 204, 0)"
Gatwick Link,51.160212,-0.163604,Horley,Gatwick Stream,1.2,"rgba(255, 0, 0)"
Gargrave,53.982002,-2.097548,Gargrave,River Aire,0.6,"rgba(255, 194, 0)"
Pioneer Mills,53.561524,-2.316991,Radcliffe,Irwell,2.7,"rgba(255, 0, 0)"
Iffley Lock,51.72955,-1.239792,Kennington,Thames,0.222,"rgba(0, 204, 0)"
Bredon,52.03494,-2.116566,Bredon,River Avon,2,"rgba(255, 0, 0)"
Darlaston,52.916247,-2.171867,Meaford,River Trent,1.486,"rgba(255, 0, 0)"
Diss,52.371419,1.099743,Diss,River Waveney,0.95,"rgba(255, 0, 0)"
East Bridge Bridport,50.731934,-2.752192,Bridport,River Asker,0.324,"rgba(0, 204, 0)"
Woolsington,55.023247,-1.698085,Woolsington,Ouse Burn,1.3,"rgba(255, 0, 0)"
Chertsey Bourne,51.402823,-0.539779,Thorpe,Chertsey Bourne,1.06,"rgba(255, 0, 0)"
Izaak Walton,53.055864,-1.782274,Ilam,River Dove,0.59,"rgba(255, 194, 0)"
"Botcherby Bridge, Carlisle",54.89341,-2.910796,"Botcherby, Carlisle",River Petteril,0.933,"rgba(255, 0, 0)"
Stainfield Beck,53.250167,-0.313829,Kingthorpe,Stainfield Beck,0.69,"rgba(255, 194, 0)"
Horncastle Banks Road,53.208433,-0.108817,Horncastle,Waring,0.68,"rgba(255, 194, 0)"
Colwick,52.952707,-1.07772,Holme Pierrepont,River Trent,3.6,"rgba(255, 0, 0)"
Edenbridge,51.194078,0.065165,Edenbridge,Eden Tributary  Medway,2.75,"rgba(255, 0, 0)"
Castle Howe,54.666243,-3.236916,Castle Howe,Lake Bassenthwaite,2.072,"rgba(255, 0, 0)"
Frampton Cotterell,51.537816,-2.481077,Frampton Cotterell,Bristol Frome,0.346,"rgba(0, 204, 0)"
Ewen,51.674733,-1.9904,Ewen,Thames,0.99,"rgba(255, 0, 0)"
Brown Mill,51.171609,0.799508,Hothfield,Great Stour,1.65,"rgba(255, 0, 0)"
Beerwall Upstream,51.079805,-2.869413,Othery,Sowy,4.155,"rgba(255, 0, 0)"
Gillingham Le Neubourg Way,51.037252,-2.278768,Gillingham,River Stour,1.05,"rgba(255, 0, 0)"
Cliff Bridge,54.986798,-2.920411,Kirklinton,Lyne,2.4,"rgba(255, 0, 0)"
Beddington Park,51.373583,-0.138986,Beddington,Wandle,1.4,"rgba(255, 0, 0)"
Boynton,54.093099,-0.263772,Boynton,River Gypsey Race,0.6,"rgba(255, 194, 0)"
Cricklade,51.646694,-1.865536,Cricklade,Thames,1.083,"rgba(255, 0, 0)"
Allington Marina,51.291026,0.511282,Sandling,Medway,0.5,"rgba(255, 194, 0)"
Sheffield Oakbrook Road,53.367798,-1.521432,Sheffield,Porter Brook,0.3,"rgba(0, 204, 0)"
West Drayton,51.500923,-0.482762,West Drayton,Colne,0.9,"rgba(255, 0, 0)"
Bampton Grange,54.555577,-2.743431,Bampton Grange,River Lowther,0.906,"rgba(255, 0, 0)"
Arlesey,52.026751,-0.266941,Arlesey,River Hiz,0.261,"rgba(0, 204, 0)"
Hovingham,54.173347,-0.984145,Hovingham,Hovingham Beck,0.45,"rgba(0, 204, 0)"
Wigan,53.54925,-2.625999,Wigan,Douglas,1.35,"rgba(255, 0, 0)"
Bures Bridge,51.972195,0.774544,Bures,River Stour,1.43,"rgba(255, 0, 0)"
Rose in Vale,50.311991,-5.166154,Mithian,Perrancombe Stream,1.2,"rgba(255, 0, 0)"
Bruton Dam,51.116056,-2.430837,Bruton,River Brue,1.89,"rgba(255, 0, 0)"
Halsewater,51.021033,-3.132608,Bishops Hull,Halsewater,1.4,"rgba(255, 0, 0)"
Coldgate Mill,55.517539,-2.005254,North Middleton,Wooler Water,1.2,"rgba(255, 0, 0)"
Shelburne Road,51.891766,-2.103713,Cheltenham,Hatherley Brook,0.49,"rgba(0, 204, 0)"
Davis Road,53.411889,-3.088778,Moreton,Birket,1.188,"rgba(255, 0, 0)"
Hampstead Suburb,51.584844,-0.180888,Finchley,Mutton Brook,1.891,"rgba(255, 0, 0)"
Crowhurst,50.878052,0.500069,Crowhurst,Cuckmere,5.6,"rgba(255, 0, 0)"
Kegworth,52.831898,-1.273539,Kegworth,River Soar,1.006,"rgba(255, 0, 0)"
Brigsley,53.496174,-0.11262,Brigsley,Waithe Beck,0.6,"rgba(255, 194, 0)"
Bourn Brook,52.192643,-0.064443,Bourn,Bourn Brook,0.496,"rgba(0, 204, 0)"
Low Briery,54.608017,-3.107571,Keswick,Greta,1.6,"rgba(255, 0, 0)"
Bidford on Avon,52.164097,-1.857348,Bidford on Avon,River Avon,2.6,"rgba(255, 0, 0)"
Godstow Lock,51.776669,-1.298428,Wytham,Thames,0.171,"rgba(0, 204, 0)"
Upwey Culvert,50.665978,-2.480781,Upwey,Wey,0.26,"rgba(0, 204, 0)"
Swallowfield,51.377564,-0.952526,Swallowfield,River Blackwater,0.95,"rgba(255, 0, 0)"
Alston,54.812531,-2.443415,Alston,River South Tyne,1.9,"rgba(255, 0, 0)"
"Cheshunt, Trinity Lane",51.691657,-0.027263,Waltham Cross,Theobalds Brook,0.9,"rgba(255, 0, 0)"
Mytham Bridge,53.335557,-1.683843,Bamford,River Derwent,3.2,"rgba(255, 0, 0)"
Lincoln Monson Street,53.221702,-0.541127,Boultham,Lincoln Drainage Area,2.96,"rgba(255, 0, 0)"
Bickington,50.539272,-3.702255,Bickington,River Lemon,1,"rgba(255, 0, 0)"
"Northholt, Yeading East",51.548783,-0.397836,Northolt,Yeading Brook East,0.5,"rgba(255, 194, 0)"
De Lank,50.558795,-4.637796,St Breward,De Lank River,0.692,"rgba(255, 194, 0)"
Newnham Bridge,50.939901,-3.907581,Burrington,River Taw,2.5,"rgba(255, 0, 0)"
Thame Bridge,51.753138,-0.982253,Thame,Thame,2.25,"rgba(255, 0, 0)"
Stanley,51.455821,-2.065573,Tytherton Lucas,River Marden,1.104,"rgba(255, 0, 0)"
Wincanton,51.048996,-2.41251,Wincanton,River Cale,1.28,"rgba(255, 0, 0)"
Fiskerton Sluice,53.226658,-0.368683,Stainfield,Witham,0.9,"rgba(255, 0, 0)"
Helston County Bridge,50.100002,-5.279794,Helston,Cober,1.4,"rgba(255, 0, 0)"
Middleton Bridge,55.151643,-1.917583,Middleton,River Wansbeck,1.81,"rgba(255, 0, 0)"
Wennington,54.125115,-2.589971,Wennington,Wenning,0.794,"rgba(255, 194, 0)"
Sheffield Centenary Works,53.351517,-1.484072,Sheffield,River Sheaf,0.64,"rgba(255, 194, 0)"
"Cheshunt, Windmill Lane",51.703222,-0.022505,Cheshunt,Small River Lee,1.8,"rgba(255, 0, 0)"
Tiverton,50.883029,-3.489856,Tiverton,River Exe,2.5,"rgba(255, 0, 0)"
Batley Carlinghow  (up stream),53.71811,-1.638949,North America,Batley Beck,2,"rgba(255, 0, 0)"
Bollington Mill,53.380045,-2.406589,Little Bollington,Bollin,0.714,"rgba(255, 194, 0)"
Northallerton,54.338848,-1.442218,Northallerton,Willow Beck,1,"rgba(255, 0, 0)"
Radlett,51.682315,-0.315607,Radlett,Radlett Brook,1.1,"rgba(255, 0, 0)"
Grendon Underwood,51.884491,-1.012852,Grendon Underwood,Ray(Oxon),0.939,"rgba(255, 0, 0)"
Lostock Gralam,53.277575,-2.455855,Higher Wincham,Wincham Brook,1.164,"rgba(255, 0, 0)"
Sowerby Bridge Scar Head Road,53.70594,-1.91329,Sowerby Bridge,Ryburn,0.784,"rgba(255, 194, 0)"
Kestrel Drive,51.563545,-1.722961,Wanborough,Dorcan Brook,1.91,"rgba(255, 0, 0)"
Fosdyke Jetty,53.23087,-0.555797,Lincoln,Fosdyke Canal,1.9,"rgba(255, 0, 0)"
Trowlock Island,51.423993,-0.308538,Trowlock Island,Thames,5,"rgba(255, 0, 0)"
Duddon Hall,54.295374,-3.237418,Beckfoot,Duddon,1.45,"rgba(255, 0, 0)"
Aylesford Stream,51.133674,0.880127,Park Farm,Old Mill Stream Tributary  East Stour,1.64,"rgba(255, 0, 0)"
Medbourne,52.537116,-0.824895,Medbourne,Medbourne Brook,0.289,"rgba(0, 204, 0)"
Mytholmroyd,53.73128,-1.983282,Mytholmroyd,River Calder,2.1,"rgba(255, 0, 0)"
Sprouston,55.61121,-2.395446,Sprouston,Tweed,1.63,"rgba(255, 0, 0)"
Bellingham,55.142852,-2.261953,Bellingham,River North Tyne,3,"rgba(255, 0, 0)"
Tidworth Manor Bridge,51.242295,-1.662004,North Tidworth,River Bourne,0.401,"rgba(0, 204, 0)"
Tideford,50.413192,-4.331177,Tideford,River Tiddy,0.503,"rgba(255, 194, 0)"
Torksey,53.293511,-0.750996,Torksey,River Trent,4.65,"rgba(255, 0, 0)"
Drove Lane,51.090021,-1.181212,New Alresford,Alre,0.55,"rgba(255, 194, 0)"
Welney Causeway,52.518826,0.252026,Welney Causeway,River Great Ouse,2.4,"rgba(255, 0, 0)"
Pincock Brow,53.655307,-2.676594,Euxton,Yarrow,1,"rgba(255, 0, 0)"
Walcot,52.706629,-2.60558,Walcot,River Tern,1.3,"rgba(255, 0, 0)"
Eel House Bridge,54.338025,-2.970931,Satterthwaite,Cunsey Beck,0.847,"rgba(255, 0, 0)"
Armscroft Place,51.863183,-2.221361,Gloucester,Wotton Brook,1.5,"rgba(255, 0, 0)"
Bodicote,52.028582,-1.326852,Bodicote,Sor Brook,0.58,"rgba(255, 194, 0)"
Chipping Ongar,51.709101,0.239586,Chipping Ongar,Cripsey Brook,1,"rgba(255, 0, 0)"
Goring Lock,51.523317,-1.141252,Streatley,Thames,0.215,"rgba(0, 204, 0)"
Todmorden Callis Bridge,53.732891,-2.045203,High Green,River Calder,0.308,"rgba(0, 204, 0)"
Smithy Houses,53.019889,-1.425573,Smithy Houses,Bottle Brook,0.47,"rgba(0, 204, 0)"
Northmoor Lock,51.716858,-1.374624,Appleton,Thames,0.376,"rgba(0, 204, 0)"
Sturmer,52.069056,0.474036,Sturmer,Stour Brook,0.98,"rgba(255, 0, 0)"
Little Bytham,52.748345,-0.50217,Little Bytham,West Glen (To Kates Bridge),0.44,"rgba(0, 204, 0)"
Barbrook Bridge,51.213836,-3.841064,Barbrook,West Lyn River,0.8,"rgba(255, 0, 0)"
Silsden,53.923505,-1.933535,Silsden,Silsden Beck,0.107,"rgba(0, 204, 0)"
Stokesley Downstream,54.462673,-1.19921,Stokesley,River Leven,0.898,"rgba(255, 0, 0)"
Semington,51.343988,-2.134327,Semington,Semington Brook,2,"rgba(255, 0, 0)"
Kislingbury,52.231962,-0.97793,Kislingbury,Nene,1.89,"rgba(255, 0, 0)"
Todmorden,53.716861,-2.096931,Todmorden,River Calder,1.14,"rgba(255, 0, 0)"
Lodden Bridge,51.034216,-2.265615,Gillingham,River Lodden,1.82,"rgba(255, 0, 0)"
Whitewater Bridge,53.226502,-1.008036,Ollerton,River Maun,0.8,"rgba(255, 0, 0)"
Mythe Bridge,52.00171,-2.163093,The Mythe,River Severn,2.8,"rgba(255, 0, 0)"
Fleet Weir,53.751469,-1.423682,Woodlesford,River Aire,1.8,"rgba(255, 0, 0)"
Croft Monk End Farm,54.484792,-1.567976,Croft-on-Tees,Clow Beck,1.61,"rgba(255, 0, 0)"
Oxford Rd,53.78552,-2.234141,Burnley,River Calder,1.2,"rgba(255, 0, 0)"
Whaddon,52.101809,-0.017376,Whaddon,Whaddon Brook,0.457,"rgba(0, 204, 0)"
Hartford Bridge,55.113789,-1.620587,Hartford Bridge,Blyth,0.55,"rgba(255, 194, 0)"
Reeth,54.387346,-1.936039,Fremington,Arkle Beck,0.661,"rgba(255, 194, 0)"
Beck Bridge,52.332181,0.438278,Isleham,Kennett,0.223,"rgba(0, 204, 0)"
Limekilns,50.682229,-3.470109,Exminster,Exminster Marshes,1.2,"rgba(255, 0, 0)"
Restormel,50.431183,-4.67963,Lostwithiel,River Fowey,1.5,"rgba(255, 0, 0)"
"Hemel Hempstead, Old Fishery Lane",51.744674,-0.49654,Hemel Hempstead,Bulbourne,1.8,"rgba(255, 0, 0)"
Trenear,50.133798,-5.254647,Wendron,River Cober,1,"rgba(255, 0, 0)"
Kirby Sigston,54.347769,-1.3567,Kirby Sigston,Cod Beck,1.2,"rgba(255, 0, 0)"
Preston-Le-Skerne,54.60851,-1.549436,Aycliffe Village,River Skerne,1.4,"rgba(255, 0, 0)"
Derwent Water at Lodore,54.562827,-3.138777,Derwent Water at Lodore,Derwentwater,1.706,"rgba(255, 0, 0)"
Ross On Wye,51.915339,-2.587573,Ross On Wye,Wye,3.2,"rgba(255, 0, 0)"
Stamford Bridge,53.991789,-0.916086,Tan Hall,River Derwent,9,"rgba(255, 0, 0)"
Little Ouse,52.453082,0.545246,Lakenheath,Little Ouse,2.105,"rgba(255, 0, 0)"
Whitwick,52.739499,-1.353725,Whitwick,Grace Dieu Brook,1.25,"rgba(255, 0, 0)"
Crew Green,52.735739,-2.994315,Crewgreen,River Severn,5.2,"rgba(255, 0, 0)"
Moorend Road,51.883138,-2.061691,Cheltenham,Lilley Brook,0.49,"rgba(0, 204, 0)"
Gosshill Road,51.403702,0.060218,Bickley,Kyd Brook,1.1,"rgba(255, 0, 0)"
Howe Bridge,54.174308,-0.762132,Wykeham,River Rye,3.45,"rgba(255, 0, 0)"
Chapel Hill,53.070452,-0.196967,Chapel Hill,Witham,1.333,"rgba(255, 0, 0)"
Princes Marsh,51.037463,-0.89988,Princes Marsh,Arun,0.9,"rgba(255, 0, 0)"
Colliers Land Bridge,51.150722,0.174763,Fordcombe,Medway,2.75,"rgba(255, 0, 0)"
Fairmile,50.767191,-3.29459,Fairmile,River Tale,0.727,"rgba(255, 194, 0)"
Pillings Lock,52.758541,-1.164067,Barrow Upon Soar,River Soar,1.144,"rgba(255, 0, 0)"
Tibberton,52.781029,-2.474812,Tibberton,River Meese,0.327,"rgba(0, 204, 0)"
Furneux Pelham,51.930418,0.086394,Furneux Pelham,Ash (Hertfordshire),1,"rgba(255, 0, 0)"
Burford Bridge,52.311774,-2.625404,Burford,Ledwyche Brook,1.5,"rgba(255, 0, 0)"
Houghton Le Spring,54.842382,-1.487058,Houghton Le Spring,Moors Burn,1,"rgba(255, 0, 0)"
Naburn Lock,53.89327,-1.097619,Naburn,River Ouse,2.247,"rgba(255, 0, 0)"
Kilnhurst Bridge,53.472151,-1.296778,Kilnhurst,River Don,3.4,"rgba(255, 0, 0)"
Chollerford,55.029637,-2.127318,Chollerford,River North Tyne,0.441,"rgba(0, 204, 0)"
Hackbridge,51.377064,-0.160112,Hackbridge,Wandle,1.51,"rgba(255, 0, 0)"
Cornwood,50.417855,-3.959444,Cornwood,River Yealm,1.5,"rgba(255, 0, 0)"
Rothley,52.7031,-1.142483,Rothley,Rothley Brook,1.25,"rgba(255, 0, 0)"
Whetstone,51.623491,-0.185411,Totteridge,Dollis Brook,1.6,"rgba(255, 0, 0)"
Holbeam Dam Downstream,50.533259,-3.657787,Newton Abbot,River Lemon,0.741,"rgba(255, 194, 0)"
Bishops Avenue,51.401378,0.028483,Bromley,Ravensbourne,1.5,"rgba(255, 0, 0)"
Marham,52.678061,0.547924,Marham,Nar,0.317,"rgba(0, 204, 0)"
Drakelow,52.780647,-1.647106,Branston,River Trent,2.038,"rgba(255, 0, 0)"
Lapford,50.857808,-3.810592,Lapford,River Yeo,2.3,"rgba(255, 0, 0)"
Slad Road,51.747599,-2.214291,Stroud,Slad Brook,0.43,"rgba(0, 204, 0)"
Low Street,52.612011,1.01713,Thuxton,River Yare,1.3,"rgba(255, 0, 0)"
Molesey Lock,51.406476,-0.349558,East Molesey,Thames,0.295,"rgba(0, 204, 0)"
Little Puddle,50.767098,-2.400751,Piddlehinton,River Piddle,0.38,"rgba(0, 204, 0)"
Ampney St Peter,51.710647,-1.889951,Ampney St Peter,Ampney Brook,0.93,"rgba(255, 0, 0)"
Collard Bridge,51.099972,-4.010005,Goodleigh,River Yeo,0.726,"rgba(255, 194, 0)"
Mountnessing,51.648181,0.346098,Mountnessing,River Wid,0.432,"rgba(0, 204, 0)"
Huntingford Bridge,51.067397,-2.26953,Huntingford,Shreen Water,0.51,"rgba(255, 194, 0)"
Snaygill,53.940697,-2.021283,Ravenshaw,River Aire,4,"rgba(255, 0, 0)"
Hellifield,54.006777,-2.221986,Hellifield,Hellifield Beck,0.81,"rgba(255, 0, 0)"
Mevagissey,50.272818,-4.791471,Mevagissey,Mevagissey Stream,0.75,"rgba(255, 194, 0)"
Wheatley,51.740637,-1.115198,Wheatley,Thame,5.752,"rgba(255, 0, 0)"
Ingworth,52.819304,1.251666,Ingworth,River Bure,0.68,"rgba(255, 194, 0)"
Skelton,53.991515,-1.135153,Nether Poppleton,River Ouse,3,"rgba(255, 0, 0)"
Newby Bridge,54.268069,-2.974952,Newby Bridge,River Leven,1.3,"rgba(255, 0, 0)"
High River Keer,54.140607,-2.731323,Capernwray,Keer,0.517,"rgba(255, 194, 0)"
Cowley Bridge,50.759747,-3.559651,Cowley,River Creedy,2.5,"rgba(255, 0, 0)"
Wakefield Grasmere Road,53.686013,-1.529962,Wakefield,Alverthorpe Beck,1.05,"rgba(255, 0, 0)"
Loe Pool,50.08362,-5.291203,Helston,River Cober,4.7,"rgba(255, 0, 0)"
Braunton Butts Bridge,51.111292,-4.161795,Braunton,River Caen,1.2,"rgba(255, 0, 0)"
Sheepwash Bridge,50.851679,0.522713,Sheepwash Bridge,Cuckmere & Pevensey Levels,1.8,"rgba(255, 0, 0)"
Huish Episcopi PS,51.031669,-2.798991,Huish Episcopi,River Yeo,3.476,"rgba(255, 0, 0)"
High Ongar,51.713888,0.259177,High Ongar,Roding,1.25,"rgba(255, 0, 0)"
Waren Ford,55.550443,-1.784723,Warenford,Waren Burn,0.6,"rgba(255, 194, 0)"
Miller Bridge House,54.429259,-2.970683,Miller Bridge,River Rothay,1.063,"rgba(255, 0, 0)"
Abbeymead Avenue,51.840929,-2.202237,Gloucester,Twyver,0.265,"rgba(0, 204, 0)"
Wansford,52.584341,-0.404444,Wansford,Nene (Wollaston-Wansford),1.38,"rgba(255, 0, 0)"
Bekesbourne,51.258144,1.145929,Bekesbourne,Nail Bourne Tributary Little Stour,1.5,"rgba(255, 0, 0)"
Teston,51.250834,0.447181,West Farleigh,Medway,2.5,"rgba(255, 0, 0)"
Hawley Road,51.315486,-0.764535,Cove,Cove Brook,2.6,"rgba(255, 0, 0)"
Thetford Coffee Mill Sluice,52.415589,0.734272,Thetford,Little Ouse,0.707,"rgba(255, 194, 0)"
Redbridge,51.576239,0.040575,Wanstead,Roding,1.25,"rgba(255, 0, 0)"
St Johns Lock,51.68931,-1.678796,Lechlade On Thames,Thames,0.201,"rgba(0, 204, 0)"
Framlingham,52.230723,1.344041,Brabling Green,River Ore,1.1,"rgba(255, 0, 0)"
Ludlow Teme,52.36409,-2.706474,Ludlow,River Teme,3,"rgba(255, 0, 0)"
Stanhope,54.745941,-2.026369,Stanhope,River Wear,2.15,"rgba(255, 0, 0)"
Low Moor,53.872754,-2.414398,Low Moor,Ribble,3.3,"rgba(255, 0, 0)"
Greystone Bridge,50.60014,-4.3068,Felldownhead,River Tamar,3.1,"rgba(255, 0, 0)"
Old Woking FWS,51.302063,-0.543308,Old Woking,Wey,2.9,"rgba(255, 0, 0)"
Bampton,51.72466,-1.54887,Bampton,Shill Brook,1.4,"rgba(255, 0, 0)"
Laceby,53.546656,-0.159656,Laceby,Laceby Beck,0.345,"rgba(0, 204, 0)"
Ousden,52.206315,0.520869,Ousden,Kennett,1.7,"rgba(255, 0, 0)"
Queen's Mill,53.638515,-1.7867,Huddersfield,River Holme,1.2,"rgba(255, 0, 0)"
Ifield,51.11607,-0.222649,Ifield,Ifield Brook,2.05,"rgba(255, 0, 0)"
Ashton Weir,53.438308,-2.344072,Urmston,Mersey,1.071,"rgba(255, 0, 0)"
Veraby,51.025705,-3.749635,Bishop's Nympton,River Yeo,0.715,"rgba(255, 194, 0)"
Solihull Lodge,52.397668,-1.853805,Major's Green,River Cole,0.418,"rgba(0, 204, 0)"
Frome,51.242286,-2.327797,Frome,Somerset Frome,1.2,"rgba(255, 0, 0)"
Huntington,53.981457,-1.067671,Huntington,River Foss,2.05,"rgba(255, 0, 0)"
Wendlebury,51.874246,-1.18499,Wendlebury,Wendlebury Brook,1.59,"rgba(255, 0, 0)"
Baltmoor Wall,51.05693,-2.949032,East Lyng,Little Saltmoor Rhyne,3.972,"rgba(255, 0, 0)"
Ewell,51.355767,-0.255182,Ewell,Hogsmill,0.835,"rgba(255, 0, 0)"
Three Elms,52.069153,-2.743532,Three Elms,Yazor Brook,0.408,"rgba(0, 204, 0)"
Guildford Street,51.389272,-0.506291,Chertsey,Chertsey Bourne,1.5,"rgba(255, 0, 0)"
Bracebridge,53.202079,-0.553771,Boultham,Witham,1.84,"rgba(255, 0, 0)"
Bainbridge,54.311836,-2.102939,Bainbridge,River Ure,1.5,"rgba(255, 0, 0)"
Millbourne Bridge,51.349005,-0.602519,Chobham,Mill Bourne,2.28,"rgba(255, 0, 0)"
Broken Scar,54.517925,-1.601411,Low Coniscliffe,River Tees,2.5,"rgba(255, 0, 0)"
Winterborne Monkton,51.450901,-1.859793,Winterbourne Monkton,Kennet,1.105,"rgba(255, 0, 0)"
Liversedge Halifax Road,53.70985,-1.690136,Liversedge,Lands Beck,0.35,"rgba(0, 204, 0)"
North Cheam,51.374843,-0.208335,North Cheam,Pyl Brook,2.6,"rgba(255, 0, 0)"
Bagnor,51.422436,-1.350461,Bagnor,Winterbourne Stream,0.2,"rgba(0, 204, 0)"
"Hertford, Hartham Park",51.801234,-0.079759,Hertford,Beane,0.57,"rgba(255, 194, 0)"
Tregony,50.266031,-4.918599,Tregony,River Fal,1.5,"rgba(255, 0, 0)"
East Farleigh Gate Upstream,51.254622,0.485076,East Farleigh,Medway,1.487,"rgba(255, 0, 0)"
Taunton Market,51.020017,-3.100618,Taunton Market,River Tone,1.77,"rgba(255, 0, 0)"
Honiton,50.798774,-3.194372,Honiton,The Gissage,0.364,"rgba(0, 204, 0)"
John St Darlington,54.533026,-1.55104,Darlington,River Skerne,1.7,"rgba(255, 0, 0)"
Stanwell Mill,51.466242,-0.501779,Longford,Colne,1,"rgba(255, 0, 0)"
Peterchurch,52.041372,-2.955501,Peterchurch,Dore,1.2,"rgba(255, 0, 0)"
Ferrybridge Lock,53.713759,-1.26662,Ferrybridge,River Aire,2.1,"rgba(255, 0, 0)"
Hayes Lane,51.392901,0.019484,Bromley,Ravensbourne,1.5,"rgba(255, 0, 0)"
Halton,53.800865,-1.480337,Leeds,Wyke Beck,0.175,"rgba(0, 204, 0)"
Burstwick Hall Road Bridge,53.739921,-0.144398,Burstwick,Burstwick Drain,1.27,"rgba(255, 0, 0)"
Kings Pond,51.150372,-0.96697,Alton,Wey,0.5,"rgba(255, 194, 0)"
Merestones Road,51.88594,-2.093645,Cheltenham,Hatherley Brook,0.32,"rgba(0, 204, 0)"
Levisham Station,54.308919,-0.746353,Newton-On-Rawcliffe,Pickering Beck,0.95,"rgba(255, 0, 0)"
Newport Pagnell (Cemetery),52.087826,-0.717093,Newport Pagnell,River Great Ouse,1.9,"rgba(255, 0, 0)"
Catford Hill,51.441442,-0.026869,Catford,Ravensbourne,1.475,"rgba(255, 0, 0)"
Bourton Grounds,51.991569,-0.939719,Bourton Grounds,Twin,0.726,"rgba(255, 194, 0)"
Brayford Pool,53.229862,-0.546842,Lincoln,Witham,0.66,"rgba(255, 194, 0)"
Sutton Courtenay,51.647821,-1.254167,Culham,Thames,3.51,"rgba(255, 0, 0)"
Kempsey Yacht Club,52.158602,-2.219449,Callow End,River Severn,5,"rgba(255, 0, 0)"
Udiam,50.991816,0.524378,Bodiam,River Rother,2.3,"rgba(255, 0, 0)"
New Jumbles Rock,53.833695,-2.453518,Hurst Green,Ribble,2.5,"rgba(255, 0, 0)"
"Edmonton, Silver Street",51.615727,-0.065253,Edmonton,Pymmes Brook,1.3,"rgba(255, 0, 0)"
Blackford Bridge,53.5659,-2.293017,Hollins,Roch,0.75,"rgba(255, 194, 0)"
Brant Broughton,53.080542,-0.614579,Brant Broughton,Brant,0.298,"rgba(0, 204, 0)"
Bolton Percy,53.863248,-1.192116,Bolton Percy,River Wharfe,5.922,"rgba(255, 0, 0)"
Goldbridge,50.975187,0.034071,Newick,Ouse [So],1.75,"rgba(255, 0, 0)"
Samlesbury,53.76911,-2.624715,Samlesbury,Ribble,4.83,"rgba(255, 0, 0)"
Rickmansworth,51.641989,-0.46125,Rickmansworth,Chess,0.3,"rgba(0, 204, 0)"
Lancaster Quay,54.051851,-2.822021,Lancaster,Lune,6.25,"rgba(255, 0, 0)"
Uxbridge,51.533611,-0.47115,Cowley,Pinn,0.7,"rgba(255, 194, 0)"
Newtown Bridge,51.076717,-3.866807,Charles,River Bray,1.5,"rgba(255, 0, 0)"
"Stanmore, Wolverton Road",51.610531,-0.313052,Stanmore,Edgware Brook,0.6,"rgba(255, 194, 0)"
Day Brook,52.986245,-1.163701,Nottingham,Day Brook,0.95,"rgba(255, 0, 0)"
Ramsbury Side,51.443821,-1.584692,Whittonditch,Aldbourne,0.316,"rgba(0, 204, 0)"
Netham Weir,51.451028,-2.55481,Bristol,River Avon,0.838,"rgba(255, 0, 0)"
Earls Colne,51.935709,0.697218,Colne Engaine,River Colne,1.14,"rgba(255, 0, 0)"
Liverpool Road,53.38377,-2.624305,Sankey,Sankey Brook,3.5,"rgba(255, 0, 0)"
Clifton Bridge,52.92478,-1.166968,West Bridgford,River Trent,2.9,"rgba(255, 0, 0)"
Pershore,52.10744,-2.07193,Pershore,River Avon,3.606,"rgba(255, 0, 0)"
Nunton Bridge,51.036427,-1.771751,Nunton,River Ebble,1.083,"rgba(255, 0, 0)"
Penberth,50.050669,-5.634771,Penberth,Penberth Stream,0.675,"rgba(255, 194, 0)"
Nunnykirk,55.232946,-1.893044,Nunnykirk,River Font,1.62,"rgba(255, 0, 0)"
Palmers Dam,50.390648,-3.72194,Harbertonford,River Harbourne,1.179,"rgba(255, 0, 0)"
Ashley,52.515233,-0.794532,Drayton,Welland (To Mkt.Harborough),2.08,"rgba(255, 0, 0)"
Catterick Village,54.374943,-1.633138,Catterick Village,Brough Beck,1,"rgba(255, 0, 0)"
Upton Hellions,50.820959,-3.65782,Upton Hellions,River Creedy,2,"rgba(255, 0, 0)"
Trekeivesteps,50.501243,-4.500737,Common Moor,River Fowey,1.5,"rgba(255, 0, 0)"
Went Outfall,53.660847,-0.99124,Went Green,River Went,2.428,"rgba(255, 0, 0)"
Field Mill,53.137597,-1.198884,Mansfield,River Maun,1.4,"rgba(255, 0, 0)"
Maidenhead,51.524146,-0.702103,Taplow,Thames,3.55,"rgba(255, 0, 0)"
New York,53.081293,-0.140778,New York,West Fen Catchwater,1.1,"rgba(255, 0, 0)"
Winsham,50.850029,-2.888672,Winsham,River Axe,2.1,"rgba(255, 0, 0)"
Sowerby Bridge,53.707881,-1.912089,Sowerby Bridge,River Calder,1.4,"rgba(255, 0, 0)"
Brampton Racecourse,52.330595,-0.227967,Brampton,Alconbury Brook,1.514,"rgba(255, 0, 0)"
Eathorpe,52.316208,-1.431466,Eathorpe,Leam,1.159,"rgba(255, 0, 0)"
Barden Lane,53.811466,-2.248409,Brierfield,Pendle Water,0.603,"rgba(255, 194, 0)"
Waterloo Road,53.870513,-2.388461,Clitheroe,Mearley Brook,1.53,"rgba(255, 0, 0)"
The Binghams,51.506197,-0.710164,Maidenhead,The Cut,1.71,"rgba(255, 0, 0)"
"Wiza Beck Storage Basin, Wigton",54.817425,-3.167142,Wigton,Wiza Beck,1,"rgba(255, 0, 0)"
Foxton Bridge,54.477707,-1.298736,Middleton-On-Leven,River Leven,1.5,"rgba(255, 0, 0)"
Sutton Gault,52.39784,0.093691,Sutton Gault,River Great Ouse,2.8,"rgba(255, 0, 0)"
Hexham,54.969163,-2.115677,Hexham,Cockshaw Burn,0.5,"rgba(255, 194, 0)"
Horley,51.173918,-0.18323,Horley,Mole,2.15,"rgba(255, 0, 0)"
Tinhay,50.647179,-4.267416,Lifton,River Thrushel,0.975,"rgba(255, 0, 0)"
Idmiston,51.137063,-1.72023,Idmiston,River Bourne,0.6,"rgba(255, 194, 0)"
Bacons End,52.484208,-1.731944,Marston Green,River Cole,0.385,"rgba(0, 204, 0)"
Redbourn River Red,51.793132,-0.396615,Redbourn,Red,0.65,"rgba(255, 194, 0)"
Hunsingore,53.971293,-1.349003,Hunsingore,River Nidd,0.85,"rgba(255, 0, 0)"
Esher,51.381714,-0.377493,Esher,Mole,4.02,"rgba(255, 0, 0)"
Ewelme,51.619653,-1.073786,Ewelme,Ewelme Brook,0.46,"rgba(0, 204, 0)"
Pointon Lode,52.867461,-0.333163,Pointon,Pointon Lode,0.56,"rgba(255, 194, 0)"
Fulling Mill,51.837638,-0.221289,Welwyn,Mimram,0.45,"rgba(0, 204, 0)"
Albury,51.210841,-0.504627,Albury,Law Brook,0.293,"rgba(0, 204, 0)"
Radcot Lock,51.699764,-1.573094,Radcot,Thames,0.324,"rgba(0, 204, 0)"
Hamerton,52.428112,-0.3542,Hamerton,Alconbury Brook,2.2,"rgba(255, 0, 0)"
Stokesley,54.468269,-1.194564,Stokesley,River Leven,1.62,"rgba(255, 0, 0)"
Midford,51.348874,-2.340892,Southstoke,Midford Brook,2.9,"rgba(255, 0, 0)"
Browns Bridge,50.981447,0.468833,Robertsbridge,Dudwell Tributary  Rother,1.4,"rgba(255, 0, 0)"
Burton Coggles,52.823395,-0.536693,Burton-Le-Coggles,West Glen (To Kates Bridge),0.98,"rgba(255, 0, 0)"
Hammoon,50.931417,-2.257544,Hammoon,River Stour,2.56,"rgba(255, 0, 0)"
Lilbourne,52.395138,-1.173153,Lilbourne,River Avon,0.659,"rgba(255, 194, 0)"
Byton,52.276841,-2.932709,Byton,Lugg,1.3,"rgba(255, 0, 0)"
Norwood,53.57333,-1.103688,Thorpe In Balne,Ea Beck,3.2,"rgba(255, 0, 0)"
South Newton,51.107453,-1.878102,South Newton,River Wylye,0.65,"rgba(255, 194, 0)"
Downside Bridge,51.323836,-0.41269,Stoke D'abernon,Mole,2.4,"rgba(255, 0, 0)"
Mitford,55.166194,-1.727617,Mitford,River Wansbeck,2,"rgba(255, 0, 0)"
Frisby on the Wreake,52.755673,-0.970755,Frisby on the Wreake,River Wreake,1.61,"rgba(255, 0, 0)"
North Bovey,50.639783,-3.787037,North Bovey,River Bovey,1,"rgba(255, 0, 0)"
St Leonards,54.507361,-3.525782,Cleator,Keekle,2.6,"rgba(255, 0, 0)"
Cirencester,51.724451,-1.972293,Stratton,Churn,0.7,"rgba(255, 194, 0)"
Helebridge,50.806416,-4.536465,Marhamchurch,River Neet,0.45,"rgba(0, 204, 0)"
Marsden,53.601624,-1.927299,Marsden,River Colne,0.531,"rgba(255, 194, 0)"
Trenowth,50.319157,-4.898882,Grampound Road,River Fal,1.5,"rgba(255, 0, 0)"
Normanby,54.229768,-0.872461,Normanby,River Seven,0.547,"rgba(255, 194, 0)"
Woodstock,51.864215,-1.356609,Wootton,Glyme,0.75,"rgba(255, 194, 0)"
Abbeystead Reservoir,53.978695,-2.677098,Abbeystead,Wyre,0.6,"rgba(255, 194, 0)"
Chetnole,50.873685,-2.566002,Chetnole,River Wriggle,1.1,"rgba(255, 0, 0)"
Wandle Park Side Channel,51.419659,-0.18127,Merton,Wandle,0.262,"rgba(0, 204, 0)"
Loughborough,52.765357,-1.214327,Loughborough,Wood Brook,0.5,"rgba(255, 194, 0)"
New Barnet,51.650298,-0.164059,Cockfosters,Pymmes Brook,0.9,"rgba(255, 0, 0)"
Honiton,50.796646,-3.183491,Honiton,Glen Stream,0.23,"rgba(0, 204, 0)"
Charlton Kings,51.885938,-2.052672,Cheltenham,Chelt,0.449,"rgba(0, 204, 0)"
Castle Farm,52.496238,-1.688419,Coleshill,River Blythe,1.275,"rgba(255, 0, 0)"
Romsey Botley Road,50.989153,-1.48518,Romsey,Tadburn Lake,0.76,"rgba(255, 194, 0)"
Chesham,51.702625,-0.614039,Chesham,Chess,0.6,"rgba(255, 194, 0)"
Cox's Meadow,51.890714,-2.066105,Cheltenham,Chelt,0.2,"rgba(0, 204, 0)"
Lowlands,54.619954,-1.792445,Cockfield,River Gaunless,0.65,"rgba(255, 194, 0)"
Caton,54.081344,-2.722026,Caton,Lune,3.6,"rgba(255, 0, 0)"
Cawood,53.833727,-1.12853,Cawood,River Ouse,6.1,"rgba(255, 0, 0)"
"Iver, Clisbys Bridge",51.529235,-0.488741,Cowley,Colne,0.7,"rgba(255, 194, 0)"
Lunes Bridge,54.420034,-2.599286,Tebay,Lune,1.352,"rgba(255, 0, 0)"
Crowford Bridge,50.766235,-4.425512,Whitstone,River Tamar,1.4,"rgba(255, 0, 0)"
Welches Dam,52.451684,0.163973,Welches Dam,Counter Drain,1.156,"rgba(255, 0, 0)"
Bucklebury,51.435635,-1.201665,Bucklebury,Pang,0.65,"rgba(255, 194, 0)"
Poulton Farm,51.427238,-1.724504,Marlborough,Og,0.857,"rgba(255, 0, 0)"
Tidmarsh,51.468325,-1.08539,Tidmarsh,Pang,1.56,"rgba(255, 0, 0)"
Stoneybridge,51.1339,-4.153117,Knowle,River Caen,0.65,"rgba(255, 194, 0)"
Tenbury (Kyre Brook),52.309779,-2.59384,Tenbury,Kyre Brook,2,"rgba(255, 0, 0)"
Shiplake Lock,51.501042,-0.886307,Lower Shiplake,Thames,0.317,"rgba(0, 204, 0)"
Ripon,54.133486,-1.537861,Ripon,River Laver,1.3,"rgba(255, 0, 0)"
South House,50.790604,-2.41643,White Lackington,River Piddle,0.63,"rgba(255, 194, 0)"
Cranford Park,51.488753,-0.412558,Cranford,Crane,0.72,"rgba(255, 194, 0)"
Woodleigh,50.973061,-3.909695,Chittlehamholt,River Mole,1.7,"rgba(255, 0, 0)"
Sharnford,52.522794,-1.29766,Sharnford,River Soar,1,"rgba(255, 0, 0)"
Leigh Flood Storage Area,51.194078,0.236345,Leigh,Medway,0.916,"rgba(255, 0, 0)"
Thompson park,53.79678,-2.234811,Burnley,Brun,0.945,"rgba(255, 0, 0)"
Castle Rising,52.798728,0.490559,Castle Rising,Babingley,0.292,"rgba(0, 204, 0)"
Otford,51.304292,0.18632,Otford,Darent,0.7,"rgba(255, 194, 0)"
Pooley Bridge,54.616994,-2.818572,Pooley Bridge,River Eamont,0.922,"rgba(255, 0, 0)"
Staines Ash,51.440376,-0.512035,Staines,Ash (Surrey),0.25,"rgba(0, 204, 0)"
Briggswath,54.462097,-0.654478,Briggswath,River Esk,0.95,"rgba(255, 0, 0)"
Thorverton,50.80427,-3.511305,Thorverton,River Exe,1.3,"rgba(255, 0, 0)"
Billinghay,53.077892,-0.274288,Billinghay,Billinghay Skirth,2.29,"rgba(255, 0, 0)"
"Harrow, Thistledene Avenue",51.561936,-0.379325,Northolt,The Roxbourne,0.7,"rgba(255, 194, 0)"
Waddon Ponds,51.371312,-0.120688,Beddington,Wandle,0.22,"rgba(0, 204, 0)"
Fosse Bridge,51.799654,-1.885239,Fossebridge,Coln,0.28,"rgba(0, 204, 0)"
Sherborne Lake,50.947873,-2.503101,Sherborne,River Yeo,0.2,"rgba(0, 204, 0)"
Kidderminster,52.388952,-2.250478,Kidderminster,River Stour,1.6,"rgba(255, 0, 0)"
Graylingwell,50.851113,-0.764553,Graylingwell,Lavant,0.25,"rgba(0, 204, 0)"
Cambridge Byron's Pool,52.171412,0.099158,Grantchester,River Rhee,0.645,"rgba(255, 194, 0)"
Bibury,51.754535,-1.825522,Bibury,Coln,0.4,"rgba(0, 204, 0)"
Meanwood,53.827584,-1.570463,Leeds,Meanwood Beck,0.385,"rgba(0, 204, 0)"
Harpenden,51.830547,-0.347917,Harpenden,Lee (Upper),1.12,"rgba(255, 0, 0)"
Appleby,54.579959,-2.491631,Appleby-In-Westmorland,Eden,1.8,"rgba(255, 0, 0)"
Kenton Lane,51.587068,-0.307266,Kenton,Wealdstone Brook,0.75,"rgba(255, 194, 0)"
Borough Bridge weir,51.087739,-1.189248,Itchen Stoke,Candover Stream,0.5,"rgba(255, 194, 0)"
Ebbesbourne Wake,51.018287,-2.011504,Ebbesbourne Wake,River Ebble,0.611,"rgba(255, 194, 0)"
Derby City,52.92726,-1.475443,Derby,River Derwent,2,"rgba(255, 0, 0)"
Saltersford,52.890978,-0.62509,Little Ponton,Witham,0.7,"rgba(255, 194, 0)"
Saxons Lode,52.049661,-2.200744,Naunton,River Severn,4,"rgba(255, 0, 0)"
Feckenham,52.248746,-1.994455,Feckenham,Bow Brook,1.25,"rgba(255, 0, 0)"
Bedburn,54.6847,-1.818483,Hamsterley,Bedburn Beck,1.05,"rgba(255, 0, 0)"
Watton at Stone,51.861312,-0.11775,Watton At Stone,Beane,1.2,"rgba(255, 0, 0)"
North Hykeham,53.176218,-0.5711,North Hykeham,Witham,2.11,"rgba(255, 0, 0)"
South Street Footbridge,54.662671,-3.361333,Cockermouth,Cocker,1.5,"rgba(255, 0, 0)"
Hayne Bridge,50.658035,-4.241876,Lifton,River Thrushel,2,"rgba(255, 0, 0)"
Rotherham,53.425334,-1.36339,Rotherham,River Don,1.8,"rgba(255, 0, 0)"
Wingfield Park,53.072731,-1.441438,Ripley,River Amber,2,"rgba(255, 0, 0)"
Covington,52.314257,-0.444982,Covington,River Kym,0.7,"rgba(255, 194, 0)"
Bosbury,52.08804,-2.446839,Bosbury,River Leadon,0.8,"rgba(255, 0, 0)"
Soham Lode,52.364009,0.2603,Little Thetford,River Great Ouse,1.744,"rgba(255, 0, 0)"
Flixton Bridge,53.439969,-2.388645,Flixton,Mersey,3.3,"rgba(255, 0, 0)"
Skipton Morrisons,53.959571,-2.022817,Skipton,Eller Beck,1.1,"rgba(255, 0, 0)"
"Stansted Mountfitchet, Gypsy Lane",51.89464,0.186331,Stansted Mountfitchet,Stansted Brook,0.67,"rgba(255, 194, 0)"
Littlebourne,51.273726,1.168504,Littlebourne,Little Stour Trib  Great Stour,0.176,"rgba(0, 204, 0)"
Chalgrove,51.663282,-1.075268,Chalgrove,Chalgrove Brook,1.75,"rgba(255, 0, 0)"
Great Somerford,51.547559,-2.049871,Great Somerford,River Avon,0.7,"rgba(255, 194, 0)"
Teddington Lock,51.429566,-0.318416,Teddington,Thames,0.217,"rgba(0, 204, 0)"
Northmoor Drain,51.073454,-2.964814,Northmoor Green,Northmoor Main Drain,3.42,"rgba(255, 0, 0)"
Hurley Lock,51.55135,-0.808421,Hurley,Thames,2.184,"rgba(255, 0, 0)"
"Harlow, Elizabeth way",51.773908,0.073644,Harlow,Canons Brook,1.4,"rgba(255, 0, 0)"
Ponsanooth,50.196411,-5.136703,Ponsanooth,Kennal,0.49,"rgba(0, 204, 0)"
Harford,50.421783,-3.918076,Harford,River Erme,1.5,"rgba(255, 0, 0)"
Bell Weir,51.438166,-0.537257,Hythe End,Thames,0.273,"rgba(0, 204, 0)"
Gwills,50.393206,-5.056217,Gwills,River Gannel,0.746,"rgba(255, 194, 0)"
Yorkshire Bridge,53.362304,-1.703631,Thornhill,River Derwent,1.6,"rgba(255, 0, 0)"
Ouse Bridge,54.677997,-3.24495,Dubwath,Derwent,2.21,"rgba(255, 0, 0)"
Redhill,51.239844,-0.166451,Redhill,Redhill Brook,2,"rgba(255, 0, 0)"
Ramsbottom Weir,53.650068,-2.31342,Ramsbottom,Irwell,1.8,"rgba(255, 0, 0)"
Six Arches,53.937868,-2.770317,Scorton,Wyre,2.52,"rgba(255, 0, 0)"
St Johns Weir,51.580872,-2.094819,Malmesbury,Sherston Avon,0.542,"rgba(255, 194, 0)"
Kirkby On Bain,53.144196,-0.140051,Kirkby On Bain,River Bain,1.1,"rgba(255, 0, 0)"
Sharpness,51.717437,-2.482837,Newtown,River Severn,10.2,"rgba(255, 0, 0)"
Hardman Way,53.69442,-2.466407,Darwen,Darwen,1.125,"rgba(255, 0, 0)"
Wharncliffe Side,53.445208,-1.549184,Sheffield,River Don,2.1,"rgba(255, 0, 0)"
Lamarsh,51.987468,0.752212,Lamarsh,River Stour,1.65,"rgba(255, 0, 0)"
Ilchester,51.003358,-2.683234,Ilchester,River Yeo,2.9,"rgba(255, 0, 0)"
Budleigh Brook,50.656145,-3.324921,East Budleigh,Budleigh Brook,0.651,"rgba(255, 194, 0)"
Gipton South Parkway,53.812894,-1.481054,Leeds,Wyke Beck,0.12,"rgba(0, 204, 0)"
Cox's Flume,51.889683,-2.062296,Cheltenham,Chelt,1.3,"rgba(255, 0, 0)"
Brooklands,51.346115,-0.465049,Byfleet,Wey,2.65,"rgba(255, 0, 0)"
"Harrow, Village Way",51.57755,-0.380271,North Harrow,Yeading Brook,0.9,"rgba(255, 0, 0)"
Keighley,53.864265,-1.904159,Keighley,River Worth,1,"rgba(255, 0, 0)"
Reedham,52.559314,1.570041,Reedham,River Yare,2.03,"rgba(255, 0, 0)"
Offenham,52.100775,-1.910164,Aldington,Badsey Brook,1.112,"rgba(255, 0, 0)"
Chalford,51.723887,-2.130978,Stroud,Frome (MI),0.5,"rgba(255, 194, 0)"
West Ayton,54.251128,-0.484316,East Ayton,River Derwent,0.377,"rgba(0, 204, 0)"
Charmouth,50.739791,-2.891657,Charmouth,River Char,1.13,"rgba(255, 0, 0)"
Littleborough,53.645347,-2.092047,Littleborough,Roch,0.447,"rgba(0, 204, 0)"
"Hemel Hempstead, Bury Mill,",51.757619,-0.475391,Hemel Hempstead,Gade,0.53,"rgba(255, 194, 0)"
Polson Bridge,50.640271,-4.330759,Liftondown,River Tamar,3,"rgba(255, 0, 0)"
Calthorpe Park,52.460104,-1.897221,Edgbaston,River Rea,0.416,"rgba(0, 204, 0)"
Penshurst,51.172608,0.173074,Penshurst,Eden Tributary  Medway,1.75,"rgba(255, 0, 0)"
St Neots,52.242947,-0.263656,St Neots,River Great Ouse,1.1,"rgba(255, 0, 0)"
Farnham,51.209424,-0.803594,Farnham,Wey,0.97,"rgba(255, 0, 0)"
Thacka Beck Reservoir,54.668303,-2.76746,"Townhead, Penrith",Thacka Beck,0.15,"rgba(0, 204, 0)"
Norley Bridge,50.779388,-4.127794,Northlew,River North Lew,0.424,"rgba(0, 204, 0)"
Ordsall,53.308371,-0.942655,Ordsall,River Idle,0.85,"rgba(255, 0, 0)"
Bedford Road Sluice,52.229163,-0.868182,Great Houghton,Nene (N'hampton-Wollaston),1.041,"rgba(255, 0, 0)"
Frenchay,51.492586,-2.523813,Hambrook,Bristol Frome,2.1,"rgba(255, 0, 0)"
Westwick Weir,54.098062,-1.457119,Skelton On Ure,River Ure,2.5,"rgba(255, 0, 0)"
Church Stretton,52.5405,-2.801605,Church Stretton,Ash Brook,0.21,"rgba(0, 204, 0)"
Higham Avenue,53.407175,-2.608928,Dallam,Sankey Brook,2.34,"rgba(255, 0, 0)"
Selby Westmill,53.786072,-1.066528,Selby,River Ouse,4.3,"rgba(255, 0, 0)"
Upper Pound,51.998663,-2.155508,Tewkesbury,River Avon,2.8,"rgba(255, 0, 0)"
Bywell,54.94992,-1.940633,Bywell,River Tyne,4.6,"rgba(255, 0, 0)"
Woodyates,50.974908,-1.978577,Woodyates,Groundwater level,102,"rgba(255, 0, 0)"
Morpeth,55.167634,-1.6945,Morpeth,Wansbeck,25.7,"rgba(255, 0, 0)"
Isleham,52.357278,0.418569,Isleham,Lark,2.19,"rgba(255, 0, 0)"
Dore Twenty Well Lane,53.326618,-1.516187,Dore,River Sheaf,0.5,"rgba(255, 194, 0)"
Hayes Basin,52.735118,-2.960681,Alberbury,Field Drain,0.97,"rgba(255, 0, 0)"
Trengoffe,50.477206,-4.595304,Mount,Warleggan River,0.714,"rgba(255, 194, 0)"
Yeoford,50.775566,-3.718339,Yeoford,River Yeo,2,"rgba(255, 0, 0)"
Fishlake,53.61394,-0.990666,Fishlake,River Don,3.176,"rgba(255, 0, 0)"
Summerstown,51.428571,-0.187677,Merton,Wandle,3.295,"rgba(255, 0, 0)"
Bissoe,50.229401,-5.120933,Bissoe,Carnon River,0.864,"rgba(255, 0, 0)"
Stony Stratford,52.053714,-0.855119,Stony Stratford,River Great Ouse,0.304,"rgba(0, 204, 0)"
Magpie Hall Lane,51.385199,0.047688,Hayes,Ravensbourne,1.4,"rgba(255, 0, 0)"
Brompton,54.363181,-1.418526,Brompton,Brompton Beck,1.21,"rgba(255, 0, 0)"
Ashbrook,53.165868,-2.494907,Wimboldsley Green,Weaver,2.6,"rgba(255, 0, 0)"
Dewsbury,53.688481,-1.634418,Dewsbury,River Calder,2.7,"rgba(255, 0, 0)"
Sulham,51.462237,-1.077263,Sulham,Sulham Brook,0.4,"rgba(0, 204, 0)"
Lilford,52.442977,-0.492641,Pilton,Nene (Wollaston-Wansford),1.3,"rgba(255, 0, 0)"
Hebden Bridge,53.741165,-2.027245,Hebden Bridge,River Calder,0.75,"rgba(255, 194, 0)"
Millbrook,50.919652,-1.447963,Millbrook,Tanners Brook,0.5,"rgba(255, 194, 0)"
Little Hadham,51.884165,0.09127,Little Hadham,Ash (Hertfordshire),0.52,"rgba(255, 194, 0)"
Oakley Cross Beck,54.62791,-1.7258,West Auckland,Oakley Cross Beck,0.8,"rgba(255, 0, 0)"
Pinkhill Lock,51.761748,-1.362413,Farmoor,Thames,0.286,"rgba(0, 204, 0)"
Hexham Tanners Row upstream,54.973701,-2.105879,Hexham,Cockshaw Burn,1.3,"rgba(255, 0, 0)"
Salisbury Bourne,51.062826,-1.779755,Salisbury,River Bourne,1.22,"rgba(255, 0, 0)"
Church Wilne,52.880685,-1.346428,Shardlow,River Derwent,1.6,"rgba(255, 0, 0)"
Union Bridge,50.529998,-3.614031,Newton Abbot,River Lemon,1.2,"rgba(255, 0, 0)"
Market Rasen,53.38885,-0.330909,Market Rasen,Rase,0.68,"rgba(255, 194, 0)"
Twyford,51.484806,-0.880942,Charvil,Loddon,1.93,"rgba(255, 0, 0)"
Red Rock,53.583885,-2.637387,Red Rock,Douglas,1.1,"rgba(255, 0, 0)"
Melton Park,52.762225,-0.889833,Melton Mowbray,River Wreake,1.26,"rgba(255, 0, 0)"
Collingham,53.912329,-1.418426,Collingham,River Wharfe,1.585,"rgba(255, 0, 0)"
High Street West,53.445001,-1.964573,Glossop,Glossop Brook,0.6,"rgba(255, 194, 0)"
Melford,52.412682,0.762195,Thetford,Thet,0.568,"rgba(255, 194, 0)"
"White House Gardens, Penrith",54.661143,-2.747001,"White House Gardens, Penrith",Thacka Beck,0.396,"rgba(0, 204, 0)"
Chulmleigh,50.907767,-3.863651,Chulmleigh,Little Dart,1.5,"rgba(255, 0, 0)"
Colston Bassett,52.896019,-0.962231,Colston Bassett,River Smite,1.7,"rgba(255, 0, 0)"
Stokesley Upstream,54.473986,-1.173419,Stokesley,River Leven,2.5,"rgba(255, 0, 0)"
Minsterworth,51.850206,-2.336612,Minsterworth,River Severn,5.7,"rgba(255, 0, 0)"
Compton Dando,51.380436,-2.506812,Compton Dando,Chew River,2.5,"rgba(255, 0, 0)"
Bargate Weir,53.213742,-0.55188,Boultham,Witham,0.59,"rgba(255, 194, 0)"
Perlethorpe,53.233981,-1.032134,Perlethorpe,River Meden,0.47,"rgba(0, 204, 0)"
Norton Bavant,51.1839,-2.132143,Norton Bavant,River Wylye,0.45,"rgba(0, 204, 0)"
Hawley,51.423959,0.230865,Hawley,Darent,0.41,"rgba(0, 204, 0)"
Wokingham,51.40345,-0.836924,Wokingham,Emm Brook,1.2,"rgba(255, 0, 0)"
Trews Weir,50.716251,-3.527368,Exeter,River Exe,4,"rgba(255, 0, 0)"
Truro,50.264906,-5.060481,Truro,River Kenwyn,1.3,"rgba(255, 0, 0)"
Saltaire,53.840066,-1.789021,Saltaire,River Aire,1.1,"rgba(255, 0, 0)"
Buxted,50.989265,0.127308,Buxted,Uck,1.4,"rgba(255, 0, 0)"
Bradbury,54.650589,-1.508677,Bradbury,River Skerne,1.5,"rgba(255, 0, 0)"
Romney Lock,51.491873,-0.604104,Eton,Thames,0.301,"rgba(0, 204, 0)"
Offord,52.27627,-0.223832,Offord Cluny,River Great Ouse,0.656,"rgba(255, 194, 0)"
Appley Bridge,53.577223,-2.72144,Appley Bridge,Douglas,3.348,"rgba(255, 0, 0)"
Sheepbridge Weir Mill Stream,51.381826,-0.966655,Swallowfield,Loddon,0.75,"rgba(255, 194, 0)"
Heyford Bridge,51.920573,-1.306366,Steeple Aston,Cherwell,1.3,"rgba(255, 0, 0)"
Thirlmere Reservoir (Spillway level = 16.55m),54.561659,-3.068796,Thirlmere Reservoir,Thirlmere Reservoir,16.68,"rgba(255, 0, 0)"
Lower Arncott,51.861059,-1.119228,Lower Arncott,Ray(Oxon),2,"rgba(255, 0, 0)"
Cranwell Line Sluice,53.00001,-0.427906,Sleaford,Slea,0.18,"rgba(0, 204, 0)"
Sidmouth,50.682142,-3.235982,Sidmouth,River Sid,0.088,"rgba(0, 204, 0)"
Launceston,50.641712,-4.362839,Launceston,Kensey,0.961,"rgba(255, 0, 0)"
Stonebridge,51.132785,0.453941,Horsmonden,Teise,2.5,"rgba(255, 0, 0)"
Copley,54.62006,-1.868327,Copley,River Gaunless,0.6,"rgba(255, 194, 0)"
Summerford Bridge,51.107299,0.139866,Withyham,Medway,1.8,"rgba(255, 0, 0)"
Foss Barrier,53.952443,-1.078056,York,River Ouse,7.9,"rgba(255, 0, 0)"
Caversham Lock,51.460811,-0.963635,Reading,Thames,0.262,"rgba(0, 204, 0)"
Ashbourne,53.013888,-1.738962,Ashbourne,Henmore Brook,0.351,"rgba(0, 204, 0)"
Montford,52.724474,-2.872198,Montford,River Severn,4.8,"rgba(255, 0, 0)"
Wakefield Oakenshaw,53.668661,-1.472656,Wakefield,Oakenshaw Beck,0.148,"rgba(0, 204, 0)"
Udford,54.667313,-2.659359,Edenhall,River Eamont,2,"rgba(255, 0, 0)"
Ardingly,51.038151,-0.100109,Ardingly,Shell Brook,0.8,"rgba(255, 0, 0)"
Bingley,53.85124,-1.842838,Catcliffe Drain,River Aire,1.1,"rgba(255, 0, 0)"
Chestnut Road,53.494067,-2.375559,Alder Forest,Worsley Brook,0.228,"rgba(0, 204, 0)"
Mole Mills,51.016893,-3.822486,South Molton,River Mole,1.2,"rgba(255, 0, 0)"
Sandford-on-Thames,51.708312,-1.232825,Sandford-on-Thames,Thames,0.4,"rgba(0, 204, 0)"
Sutton Bridge,52.298087,-2.55805,Tenbury,Kyre Brook,3,"rgba(255, 0, 0)"
Stone Road Farm,52.669401,0.995655,Clint Green,River Tud,1.82,"rgba(255, 0, 0)"
Earby New Cut,53.914547,-2.144584,Earby,Earby Beck,0.4,"rgba(0, 204, 0)"
Writtle,51.727462,0.441028,Widford,River Wid,0.93,"rgba(255, 0, 0)"
Rodbourne,51.554844,-2.092255,Rodbourne,Gauze Brook,0.353,"rgba(0, 204, 0)"
Kedington,52.077093,0.491629,Sturmer,River Stour,1.43,"rgba(255, 0, 0)"
Romford,51.583879,0.172001,Romford,Rom/Beam,1.75,"rgba(255, 0, 0)"
Revesby,53.125717,-0.052667,Revesby,West Fen Catchwater,2.05,"rgba(255, 0, 0)"
Torrington,50.946265,-4.137186,Great Torrington,River Torridge,3,"rgba(255, 0, 0)"
Pinxton,53.0832,-1.32769,Pinxton,River Erewash,1,"rgba(255, 0, 0)"
"Uxbridge, Philpots Bridge",51.517498,-0.476763,Yiewsley,Pinn,1.5,"rgba(255, 0, 0)"
Poole Street,51.997863,0.578311,Castle Hedingham,River Colne,1.45,"rgba(255, 0, 0)"
Meerut Road,50.824241,-1.576864,Balmerlawn,Lymington,0.37,"rgba(0, 204, 0)"
Colne Bridge,53.67527,-1.738074,Huddersfield,River Colne,1,"rgba(255, 0, 0)"
Kates Bridge,52.720446,-0.363945,Baston,River Glen,0.72,"rgba(255, 194, 0)"
Matlock,53.124099,-1.557929,Matlock Bath,River Derwent,2.5,"rgba(255, 0, 0)"
Carry Bridge,53.854769,-2.158987,Colne,Colne Water,1.35,"rgba(255, 0, 0)"
Richmond Lownthwaite Bridge,54.401122,-1.776606,Hudswell,River Swale,2,"rgba(255, 0, 0)"
Bubwith Bridge,53.819066,-0.927565,Bubwith,River Derwent,5.5,"rgba(255, 0, 0)"
"Pinner, Moss Close",51.598796,-0.376829,Pinner,Pinn,1.1,"rgba(255, 0, 0)"
Worcester Road,51.375687,-0.264339,Tolworth,Hogsmill,2.25,"rgba(255, 0, 0)"
Brent Cross,51.577539,-0.217549,Golders Green,Brent,0.9,"rgba(255, 0, 0)"
"Brent, Monks park",51.551558,-0.267837,Willesden,Brent,1.55,"rgba(255, 0, 0)"
Allerton Ings,53.740078,-1.366226,Leeds,Aire Washlands,0.3,"rgba(0, 204, 0)"
Hanwell,51.508638,-0.342569,Norwood Green,Brent,3.189,"rgba(255, 0, 0)"
South Wigston,52.573856,-1.13453,South Wigston,River Sence (Soar),1.607,"rgba(255, 0, 0)"
Brown Howe,54.307391,-3.091306,Coniston,Coniston Water,1.382,"rgba(255, 0, 0)"
Duston Mill,52.227978,-0.934098,Duston,Wootton Brook,0.949,"rgba(255, 0, 0)"
Puslinch,50.34269,-4.005399,Yealmpton,River Yealm,1.361,"rgba(255, 0, 0)"
Worksop,53.309224,-1.138194,Worksop,River Ryton,1.05,"rgba(255, 0, 0)"
Winster Drive,53.384181,-2.825909,Netherley,Netherley Brook,0.715,"rgba(255, 194, 0)"
Olney,52.147499,-0.708027,Olney,River Great Ouse,0.372,"rgba(0, 204, 0)"
Yarm,54.512373,-1.355879,Yarm,River Tees,1.8,"rgba(255, 0, 0)"
Kettlewell,54.143807,-2.050474,Kettlewell,River Wharfe,2,"rgba(255, 0, 0)"
Dryden Street,53.794282,-2.306373,Padiham,Shaw Brook Tributary,1.26,"rgba(255, 0, 0)"
Cock Beck Sluices,53.874564,-1.253163,Tadcaster,River Wharfe,7.296,"rgba(255, 0, 0)"
"Bishops Stortford, Grange Paddocks",51.878177,0.160906,Bishop's Stortford,Stort,0.6,"rgba(255, 194, 0)"
Freemans Weir,52.619792,-1.146475,Aylestone,River Soar,0.47,"rgba(0, 204, 0)"
Harlow Mill,51.795404,0.134177,Harlow,Stort,1.58,"rgba(255, 0, 0)"
Cookham Lock,51.560993,-0.694635,Cookham,Thames,3.68,"rgba(255, 0, 0)"
Osney Lock,51.74909,-1.272781,Botley,Thames,0.12,"rgba(0, 204, 0)"
Swallowfield Side Channel,51.377564,-0.952526,Swallowfield,River Blackwater,0.728,"rgba(255, 194, 0)"
Manor House Gardens,51.45563,0.00613,Hither Green,Quaggy,0.7,"rgba(255, 194, 0)"
Kielder Burn,55.245179,-2.561466,Kielder,Kielder Burn,1.7,"rgba(255, 0, 0)"
Toynton Fenside,53.144479,0.086945,Toynton Fen Side,East fen Catchwater,2.07,"rgba(255, 0, 0)"
Wherwell RL,51.166603,-1.441818,Wherwell,Test,0.5,"rgba(255, 194, 0)"
Beech Hill,51.385195,-1.002649,Grazeley,Foudry Brook,2,"rgba(255, 0, 0)"
Cappenham,52.131783,-0.962049,Cappenham,River Tove,0.582,"rgba(255, 194, 0)"
Slaughterbridge,50.640424,-4.675182,Camelford,River Camel,1,"rgba(255, 0, 0)"
Weedon,52.229209,-1.080484,Weedon Bec,Weedon Beck,0.177,"rgba(0, 204, 0)"
Markyate,51.838108,-0.461149,Markyate,Ver,0.88,"rgba(255, 0, 0)"
Hadfields,53.413919,-1.416218,Tinsley,River Don,0.9,"rgba(255, 0, 0)"
Kirkby Mills,54.260305,-0.919219,Kirkby Mills,River Dove,0.522,"rgba(255, 194, 0)"
Babraham,52.131206,0.205231,Babraham,River Granta,0.235,"rgba(0, 204, 0)"
Keynsham RL,51.421461,-2.492956,Keynsham,River Avon,2.093,"rgba(255, 0, 0)"
Aldwark Bridge,54.053636,-1.288144,Aldwark,River Ure,3,"rgba(255, 0, 0)"
IPING MILL,50.999232,-0.786847,Midhurst,Rother (West Sussex),1.1,"rgba(255, 0, 0)"
"Hoddesdon, Rye Bridge",51.770008,0.006126,Hoddesdon,Lee,3.1,"rgba(255, 0, 0)"
Weston Bampfylde,51.023159,-2.565568,Weston Bampfylde,River Cam,0.6,"rgba(255, 194, 0)"
Forde Abbey,50.841739,-2.916366,Forde Abbey,River Axe,1.5,"rgba(255, 0, 0)"
Wooler,55.547487,-2.011059,Wooler,Wooler Water,1.1,"rgba(255, 0, 0)"
Linton,52.093158,0.292511,Linton,River Granta,0.74,"rgba(255, 194, 0)"
Maidenbower,51.110238,-0.153871,Maidenbower,Gatwick Stream,2,"rgba(255, 0, 0)"
North Cave,53.77313,-0.651055,North Cave,Mires Beck,0.32,"rgba(0, 204, 0)"
Mimmshall Brook,51.706896,-0.217824,South Mimms,Mimmshall Brook,1,"rgba(255, 0, 0)"
Comberton,52.175048,0.01962,Comberton,Bourn Brook,0.838,"rgba(255, 0, 0)"
Burcote,52.555203,-2.376056,Allscott,River Worfe,0.55,"rgba(255, 194, 0)"
Sandhurst,51.887818,-2.256949,Maisemore,River Severn,3,"rgba(255, 0, 0)"
Brackley,52.031808,-1.132641,Brackley,River Great Ouse,1.492,"rgba(255, 0, 0)"
St Andrews Mill,52.244802,-0.905866,Northampton,Nene - Brampton Branch,1.26,"rgba(255, 0, 0)"
Albert Royds Bridge,53.62694,-2.13755,Smallbridge,Roch,1.3,"rgba(255, 0, 0)"
Lifton Park,50.635525,-4.279753,Lifton,River Lyd,2.3,"rgba(255, 0, 0)"
Calne,51.438369,-2.003555,Calne,River Marden,0.477,"rgba(0, 204, 0)"
Wakefield,53.677173,-1.491306,Wakefield,River Calder,0.75,"rgba(255, 194, 0)"
North Molton,51.055152,-3.795036,North Molton,River Mole,1.1,"rgba(255, 0, 0)"
Godmanchester,52.318507,-0.176335,Godmanchester,River Great Ouse,0.488,"rgba(0, 204, 0)"
Newbury,51.401605,-1.323874,Newbury,Kennet,5.5,"rgba(255, 0, 0)"
Woodford Halse,52.167771,-1.212815,Hinton,Cherwell,2,"rgba(255, 0, 0)"
Glusburn Bridge,53.897872,-2.008295,Glusburn,Eastburn Beck,0.435,"rgba(0, 204, 0)"
Fosseway,51.581999,-2.158019,Easton Grey,Sherston Avon,0.55,"rgba(255, 194, 0)"
Bridgham,52.432388,0.877025,Bridgham,Thet,0.503,"rgba(255, 194, 0)"
Maiden Newton,50.776561,-2.574345,Maiden Newton,River Frome,0.74,"rgba(255, 194, 0)"
Goytside Farm,53.357485,-1.996738,New Mills,Goyt,1.5,"rgba(255, 0, 0)"
Barnes,51.47009,-0.245065,Barnes,Beverley Brook,2.14,"rgba(255, 0, 0)"
Whitchurch Lock,51.486605,-1.088869,Pangbourne,Thames,0.164,"rgba(0, 204, 0)"
Farrer Lane,53.747992,-1.448902,Oulton,Oulton Beck,0.6,"rgba(255, 194, 0)"
"Preesall Pumping Station, Cockers Dyke",53.938698,-2.955067,Pilling Lane,Cockers Dyke,1.5,"rgba(255, 0, 0)"
Hornchurch,51.546517,0.183966,Elm Park,Beam,2.6,"rgba(255, 0, 0)"
Austins Bridge,50.479033,-3.761402,Buckfastleigh,River Dart,1.8,"rgba(255, 0, 0)"
Cae Howel,52.74743,-2.972211,Melverley,River Severn,3.4,"rgba(255, 0, 0)"
High Green,53.467219,-1.473784,Sheffield,Charlton Brook,0.35,"rgba(0, 204, 0)"
Bishopstoke,50.970553,-1.344248,Bishopstoke,Itchen,1.7,"rgba(255, 0, 0)"
Great Easton Flood Storage Reservoir,52.529248,-0.758769,Great Easton,Nene (Wollaston-Wansford),1.79,"rgba(255, 0, 0)"
Kirk Bramwith,53.596385,-1.063688,Kirk Bramwith,River Don,3.935,"rgba(255, 0, 0)"
Boscadjack,50.131125,-5.255319,Wendron,River Cober,1.1,"rgba(255, 0, 0)"
"Enfield, The Chine",51.643461,-0.095003,Winchmore Hill,Salmon Brook,2.1,"rgba(255, 0, 0)"
Blandford,50.853069,-2.167089,Blandford St Mary,River Stour,1.1,"rgba(255, 0, 0)"
Todmorden Salford,53.710539,-2.101856,Todmorden,Walsden Water,1.25,"rgba(255, 0, 0)"
Castleford,53.731002,-1.358177,Castleford,River Aire,2,"rgba(255, 0, 0)"
Stanford Bridge,52.28899,-2.418688,Stanford Bridge,River Teme,1.367,"rgba(255, 0, 0)"
Braystones,54.440158,-3.529373,Braystones,River Ehen,1.7,"rgba(255, 0, 0)"
Compstall,53.413802,-2.058026,Compstall,Etherow,0.75,"rgba(255, 194, 0)"
Brinksway,53.407306,-2.174445,Stockport,Mersey,1.5,"rgba(255, 0, 0)"
Besford Bridge,52.114425,-2.108012,Pershore,Bow Brook,1.9,"rgba(255, 0, 0)"
Birstwith,54.038156,-1.650292,Birstwith,River Nidd,1.5,"rgba(255, 0, 0)"
Kites Hardwick,52.313513,-1.314911,Kites Hardwick,River Leam,1.138,"rgba(255, 0, 0)"
Netherbury,50.789421,-2.750022,Netherbury,River Brit,1.73,"rgba(255, 0, 0)"
Windyridge Road,51.91699,-2.086745,Cheltenham,Wymans Brook,0.39,"rgba(0, 204, 0)"
Bardsey,53.883728,-1.440943,Bardsey,Bardsey Beck,1.38,"rgba(255, 0, 0)"
Woodlands Road,51.405031,0.056251,Bickley,Kyd Brook,1.9,"rgba(255, 0, 0)"
Dane End,51.875292,-0.062702,Dane End,Beane,1.2,"rgba(255, 0, 0)"
Manthorpe,52.731094,-0.419825,Manthorpe,East Glen (To Kates Bridge),0.89,"rgba(255, 0, 0)"
Brigflats,54.314107,-2.555012,Sedbergh,Rawthey,1.556,"rgba(255, 0, 0)"
Sampford Brett,51.155718,-3.302248,Sampford Brett,Doniford Stream,0.8,"rgba(255, 0, 0)"
Hendal Bridge,51.108316,0.172486,Groombridge,Eridge Stream Tributary  Medway,1.25,"rgba(255, 0, 0)"
Houghton,53.543567,-1.369767,Darfield,River Dearne,1.25,"rgba(255, 0, 0)"
Coney Gut,51.073179,-4.041276,Barnstaple,Coney Gut,0.815,"rgba(255, 0, 0)"
Great Ayton,54.488529,-1.135197,Great Ayton,River Leven,0.74,"rgba(255, 194, 0)"
Saltford,51.399488,-2.447727,Saltford,River Avon,1.409,"rgba(255, 0, 0)"
Kingskerswell,50.486806,-3.568943,Kingskerswell,Aller Brook,0.415,"rgba(0, 204, 0)"
Thornton le Dale,54.23945,-0.717218,Thornton le Dale,Thornton Beck,0.7,"rgba(255, 194, 0)"
"Sands Centre, Carlisle",54.898639,-2.932277,"Sands Centre, Carlisle",River Eden,2.159,"rgba(255, 0, 0)"
"Roydon, Glen Faba",51.764828,0.015113,Roydon,Stort,1.6,"rgba(255, 0, 0)"
Amesbury,51.17155,-1.785174,Amesbury,River Avon,0.7,"rgba(255, 194, 0)"
Binfield,51.433827,-0.773574,Binfield,The Cut,0.815,"rgba(255, 0, 0)"
Rothbury,55.308429,-1.895992,Rothbury,River Coquet,1.8,"rgba(255, 0, 0)"
Eynsford Close,51.383249,0.072664,Petts Wood,Kyd Brook,0.9,"rgba(255, 0, 0)"
Mapledurham Lock,51.486033,-1.039654,Mapledurham,Thames,0.212,"rgba(0, 204, 0)"
Galesyke,54.422403,-3.334074,Wasdale,Irt,0.85,"rgba(255, 0, 0)"
Bush,50.844477,-4.509166,Stratton,River Strat,1,"rgba(255, 0, 0)"
Wickford,51.61221,0.52337,Wickford,River Crouch,1.67,"rgba(255, 0, 0)"
Waxwell Lane,51.602909,-0.384264,Pinner,Pinn,0.5,"rgba(255, 194, 0)"
Rawtenstall,53.705772,-2.286263,Rawtenstall,Limey Water,0.351,"rgba(0, 204, 0)"
Lowdham Grange,53.010442,-1.024175,Lowdham,Cocker Beck,0.6,"rgba(255, 194, 0)"
Thirlmere,54.565937,-3.063696,Legburthwaite,St Johns Beck,1.5,"rgba(255, 0, 0)"
Stamp End Sluice,53.228743,-0.528903,Lincoln,Witham,0.988,"rgba(255, 0, 0)"
Pudsey,53.79812,-1.629518,Pudsey,Farnley Beck,0.4,"rgba(0, 204, 0)"
Ness,54.203845,-0.937557,East Ness,River Rye,1.3,"rgba(255, 0, 0)"
Bowston,54.36176,-2.771951,Burneside,Kent,1.2,"rgba(255, 0, 0)"
Deeping St James,52.666216,-0.280199,Deeping St James,Welland Below Peakirk,1.152,"rgba(255, 0, 0)"
Bonehayne,50.747683,-3.110915,Colyton,River Coly,1,"rgba(255, 0, 0)"
Tavistock,50.550641,-4.14273,Tavistock,Tavy,1.648,"rgba(255, 0, 0)"
"Lochinvar storage basin, Longtown",55.009258,-2.963066,Longtown,Lochinver Beck,0.5,"rgba(255, 194, 0)"
"Cheshunt, Rosedale way",51.713361,-0.060582,Flamstead End,Rags Brook,2.25,"rgba(255, 0, 0)"
West Auckland,54.633826,-1.719549,West Auckland,River Gaunless,1.27,"rgba(255, 0, 0)"
Farnham,52.188599,1.451217,Stratford St Andrew,River Alde,0.268,"rgba(0, 204, 0)"
Weybridge,51.37248,-0.466322,Weybridge,Wey,1.4,"rgba(255, 0, 0)"
Linstock,54.912827,-2.893015,Linstock,Eden,2.4,"rgba(255, 0, 0)"
Mary Tavy,50.585989,-4.106699,Mary Tavy,River Tavy,2,"rgba(255, 0, 0)"
Bloxham,52.017279,-1.380792,Bloxham,Bloxham Brook,1.11,"rgba(255, 0, 0)"
Earby Youth Hostel,53.918527,-2.130286,Earby,Earby Beck,0.227,"rgba(0, 204, 0)"
Shelley Close,52.211373,-2.215962,Worcester,Barbourne Brook,1.35,"rgba(255, 0, 0)"
Crabb Mill,51.578233,-2.074985,Lea,Woodbridge Brook,0.677,"rgba(255, 194, 0)"
Bagshot,51.361518,-0.689296,Bagshot,Windle Brook,1.35,"rgba(255, 0, 0)"
Chesterfield Tapton Bridge,53.239901,-1.420925,Chesterfield,River Rother,1.33,"rgba(255, 0, 0)"
Leighton Buzzard,51.907687,-0.668546,Leighton Buzzard,River Ouzel,0.326,"rgba(0, 204, 0)"
Dolton,50.882269,-4.065162,Dolton,River Torridge,2.7,"rgba(255, 0, 0)"
Beverley Shipyard,53.843243,-0.399574,Beverley,River Hull,3.6,"rgba(255, 0, 0)"
Corbridge,54.974805,-2.023395,Corbridge,River Tyne,3.3,"rgba(255, 0, 0)"
Worcester Park,51.380413,-0.243611,Worcester Park,Beverley Brook,1.75,"rgba(255, 0, 0)"
Audlem,52.983736,-2.518888,Coxbank,Weaver,1.7,"rgba(255, 0, 0)"
Walton-Le-Dale,53.752898,-2.680437,Preston,Ribble,3.5,"rgba(255, 0, 0)"
Morden Park,51.391152,-0.216322,Morden,Pyl Brook,1.3,"rgba(255, 0, 0)"
Kings Bromley,52.75692,-1.805399,King's Bromley,River Trent,1.521,"rgba(255, 0, 0)"
Wimbledon Common,51.431619,-0.25215,Kingston Vale,Beverley Brook,1.4,"rgba(255, 0, 0)"
Cowbeech,50.912658,0.290758,Cowbeech,Cuckmere,0.269,"rgba(0, 204, 0)"
Cherry Farm,54.303695,-1.000302,Fadmoor,Hodge Beck,0.453,"rgba(0, 204, 0)"
Kirkby,53.47815,-2.918171,Aintree,Alt,0.59,"rgba(255, 194, 0)"
Bedford,52.133733,-0.460042,Bedford,River Great Ouse,0.524,"rgba(255, 194, 0)"
Willen,52.058687,-0.714748,Willen,River Ouzel,0.719,"rgba(255, 194, 0)"
Free Prae Road,51.386331,-0.501357,Chertsey,Chertsey Bourne,1.6,"rgba(255, 0, 0)"
Uppermill,53.542889,-2.009008,Greenfield,Tame,0.256,"rgba(0, 204, 0)"
Wycombe Hugh,51.635574,-0.753691,High Wycombe,Hughenden Stream,0.255,"rgba(0, 204, 0)"
Ludlow Corve,52.381603,-2.724237,Ludlow,River Corve,2.4,"rgba(255, 0, 0)"
Ashleworth,51.922936,-2.265002,Ashleworth,River Severn,3.576,"rgba(255, 0, 0)"
Stowmarket,52.181244,1.008338,Combs Ford,River Gipping,0.97,"rgba(255, 0, 0)"
Smarden,51.148275,0.682267,Smarden,Beult,1.548,"rgba(255, 0, 0)"
Perry Park,52.524933,-1.911514,Perry Barr,River Tame,0.868,"rgba(255, 0, 0)"
Bourton Windrush,51.886693,-1.767911,Bourton-On-The-Water,Windrush,0.24,"rgba(0, 204, 0)"
Oak Cottage,52.385318,-2.337878,Wyre Forest,Dowles Brook,1,"rgba(255, 0, 0)"
Low Nibthwaite,54.284617,-3.085173,Blawith,Crake,0.95,"rgba(255, 0, 0)"
Blackstones Farm,53.971111,-1.38968,Little Ribston,River Crimple,0.472,"rgba(0, 204, 0)"
Eastgate,54.746819,-2.074526,Eastgate,Rookhope Burn,0.82,"rgba(255, 0, 0)"
Hellingly,50.888318,0.244134,Hellingly,Bull,1.349,"rgba(255, 0, 0)"
Bolingey Cocks Bridge,50.333417,-5.144361,Bolingey,Bolingey Stream,1.09,"rgba(255, 0, 0)"
Litte Bowden Flood Storage Reservoir,52.470494,-0.909111,Little Bowden,Jordan,1.39,"rgba(255, 0, 0)"
Bruton Surgery,51.112337,-2.451073,Bruton,River Brue,0.673,"rgba(255, 194, 0)"
London Road,53.474178,-2.228957,Manchester,Medlock,1,"rgba(255, 0, 0)"
Hythe End,51.440219,-0.535292,Hythe End,Colne Brook,2.14,"rgba(255, 0, 0)"
Vexour Bridge,51.189651,0.160853,Chiddingstone Causeway,Eden Tributary  Medway,2.5,"rgba(255, 0, 0)"
Snaith Ings,53.697129,-0.989661,"Hull High Flaggs, Lincoln Street",Snaith Ings,3.1,"rgba(255, 0, 0)"
Bishops Frome,52.137017,-2.488532,Bishops Frome,Frome,0.9,"rgba(255, 0, 0)"
Hagnaby Beck,53.106632,0.0137,Stickford,Hagnaby Beck,2.25,"rgba(255, 0, 0)"
Clifton Lock,51.648617,-1.210808,Long Wittenham,Thames,0.849,"rgba(255, 0, 0)"
Buttercrambe,54.019124,-0.885796,Buttercrambe,River Derwent,1.3,"rgba(255, 0, 0)"
Debenham,52.232016,1.183613,Debenham,River Deben,1.46,"rgba(255, 0, 0)"
Bucknall,53.017569,-2.162134,Bucknall,River Trent,0.388,"rgba(0, 204, 0)"
Manaccan,50.081307,-5.125068,Manaccan,Manacan River,1,"rgba(255, 0, 0)"
Harrison Street,53.744388,-2.490462,Blackburn,Blakewater,2.565,"rgba(255, 0, 0)"
Barnard Castle,54.544622,-1.928854,Barnard Castle,River Tees,1.7,"rgba(255, 0, 0)"
Catterick Garrison,54.373262,-1.705009,Catterick Garrison,Sour Beck,0.5,"rgba(255, 194, 0)"
Trebrownbridge,50.410447,-4.394551,Seaton,River Seaton,0.7,"rgba(255, 194, 0)"
Hug Bridge,53.169457,-2.104665,Rushton Spencer,Dane,0.476,"rgba(0, 204, 0)"
Cleckheaton Hightown Road,53.721955,-1.715052,Cleckheaton,Blacup Beck,0.54,"rgba(255, 194, 0)"
Halfway Bridge,50.992202,-0.674476,Lodsworth,Lod,1.5,"rgba(255, 0, 0)"
Water Orton,52.52039,-1.751178,Water Orton,River Tame,1.436,"rgba(255, 0, 0)"
New Botley,51.752648,-1.281126,Botley,Bulstake Stream,2.01,"rgba(255, 0, 0)"
Cold Harbour,51.730973,-1.251352,South Hinksey,Hinksey Stream,2.3,"rgba(255, 0, 0)"
Burrow Beck,54.039446,-2.780563,Lancaster,Burrow Beck,0.75,"rgba(255, 194, 0)"
Cannington,51.149147,-3.061825,Cannington,Cannington Brook,1,"rgba(255, 0, 0)"
Kings College,51.397462,-0.230955,New Malden,Pyl Brook,1.6,"rgba(255, 0, 0)"
Wray,54.105893,-2.605757,Wray,Hindburn,0.792,"rgba(255, 194, 0)"
Boroughbridge,54.09646,-1.394448,Boroughbridge,River Ure,13,"rgba(255, 0, 0)"
Sheeppen Bridge,51.654587,-1.849612,Latton,Ampney Brook,1.45,"rgba(255, 0, 0)"
Ashford Mill,50.964926,-2.912024,Ilton,River Isle,1.3,"rgba(255, 0, 0)"
Borehamwood,51.668568,-0.287687,Green Street,Borehamwood Brook,1.6,"rgba(255, 0, 0)"
Manor Road,51.921925,-2.099682,Cheltenham,Wymans Brook,0.32,"rgba(0, 204, 0)"
Town Lock,51.194615,0.278452,Tonbridge,Medway,2.3,"rgba(255, 0, 0)"
Acton Lane,53.395655,-3.121735,Upton,Arrowe Brook,0.502,"rgba(255, 194, 0)"
Stilebridge,51.202357,0.515045,Linton,Beult,2.6,"rgba(255, 0, 0)"
Redlands Lane,51.237321,-0.859739,Crondall,Hart,1.1,"rgba(255, 0, 0)"
Doveridge,52.902503,-1.834928,Doveridge,River Dove,1.405,"rgba(255, 0, 0)"
Sandhurst (Hatherley Brook),51.887632,-2.251427,Sandhurst,Hatherley Brook,2.79,"rgba(255, 0, 0)"
Enslow Weir A,51.861393,-1.30321,Shipton-On-Cherwell,Cherwell,1.29,"rgba(255, 0, 0)"
Leabridge,50.895273,0.24023,Lealands,Bull,0.438,"rgba(0, 204, 0)"
Gunnislake,50.531278,-4.221847,Gunnislake,River Tamar,3,"rgba(255, 0, 0)"
Lodsbridge,50.983264,-0.669759,Selham,Lod,1.842,"rgba(255, 0, 0)"
Horbury,53.655883,-1.562677,Horbury,River Calder,2.3,"rgba(255, 0, 0)"
Waltham Abbey,51.691132,0.015788,Waltham Abbey,Cobbins Brook,2.2,"rgba(255, 0, 0)"
Carlton Bridge,53.697646,-1.023804,Snaith,River Aire,4.5,"rgba(255, 0, 0)"
Banbury,52.066379,-1.333286,Banbury,Cherwell,1.14,"rgba(255, 0, 0)"
Plaistow Mill,51.118685,-4.048455,Muddiford,Bradiford Water,0.85,"rgba(255, 0, 0)"
Salisbury Harnham Bridge,51.061054,-1.794476,Salisbury,River Avon,0.94,"rgba(255, 0, 0)"
Tongham,51.237339,-0.736289,Ash,River Blackwater,1.9,"rgba(255, 0, 0)"
Stanneylands,53.343712,-2.232417,Styal,Dean,0.506,"rgba(255, 194, 0)"
Brokenborough,51.602656,-2.124925,Brokenborough,Tetbury Avon,0.5,"rgba(255, 194, 0)"
Loughton,51.640481,0.081584,Loughton,Roding,1,"rgba(255, 0, 0)"
Witney,51.789786,-1.484269,Witney,Windrush,1.4,"rgba(255, 0, 0)"
Louds Mill,50.712042,-2.414359,Stinsford,River Frome,0.397,"rgba(0, 204, 0)"
Staines,51.431611,-0.512248,Staines,Thames,4.2,"rgba(255, 0, 0)"
Cheswick Green,52.376154,-1.814434,Cheswick Green,River Blythe,0.545,"rgba(255, 194, 0)"
Reaverhill,55.053183,-2.148665,Barrasford,River North Tyne,3.35,"rgba(255, 0, 0)"
East Mills Flume,50.928396,-1.777288,Fordingbridge,River Avon,1.35,"rgba(255, 0, 0)"
Ilam,53.053456,-1.793028,Ilam,River Manifold,0.524,"rgba(255, 194, 0)"
Barcombe near reservoir,50.915667,0.043425,Barcombe,Ouse [So],1,"rgba(255, 0, 0)"
Maesbrook,52.779686,-3.037866,Maesbrook,Flood Channel,1.26,"rgba(255, 0, 0)"
Roe Bridge,53.862594,-2.790936,Myerscough,Brock,0.927,"rgba(255, 0, 0)"
Sheffield Wincobank,53.423952,-1.416682,Sheffield,Blackburn Brook,0.416,"rgba(0, 204, 0)"
Castle Mill (Bedford),52.145596,-0.405558,Bedford,River Great Ouse,0.264,"rgba(0, 204, 0)"
Wainsford,50.458709,-4.604746,Mount,River Fowey,1.8,"rgba(255, 0, 0)"
Send,51.287835,-0.505999,Burntcommon,East Clandon Stream,2.724,"rgba(255, 0, 0)"
Rushey Lock,51.698716,-1.534037,Carswell Marsh,Thames,0.297,"rgba(0, 204, 0)"
Northenden,53.408784,-2.252674,Northenden,Mersey,1.5,"rgba(255, 0, 0)"
Old Mill Lane,53.251492,-2.120243,Macclesfield,Bollin,0.45,"rgba(0, 204, 0)"
Cropredy Bridge,52.114915,-1.315184,Cropredy,Cherwell,2.192,"rgba(255, 0, 0)"
Leigh Court,51.926224,-2.197575,The Leigh,Leigh Brook,1.3,"rgba(255, 0, 0)"
Rugby,52.38548,-1.26252,Newbold On Avon,River Avon,1.079,"rgba(255, 0, 0)"
Reedyford,53.84567,-2.22323,Barrowford,Pendle Water,2.6,"rgba(255, 0, 0)"
Billingford,52.359187,1.182279,Oakley,River Waveney,0.9,"rgba(255, 0, 0)"
Swanton Morley,52.725484,0.990183,Swanton Morley,River Wensum,0.7,"rgba(255, 194, 0)"
"Pickering, Ings Bridge",54.227169,-0.788071,Pickering,Pickering Beck,0.6,"rgba(255, 194, 0)"
Holgate,53.964636,-1.111032,Holgate,Holgate Beck,1.25,"rgba(255, 0, 0)"
Bentham Bridge,54.113463,-2.510184,High Bentham,Wenning,2.25,"rgba(255, 0, 0)"
Tanbridge,51.061034,-0.335071,Tanbridge,Arun,32.6,"rgba(255, 0, 0)"
Chafford,51.144544,0.168468,Fordcombe,Medway,2.5,"rgba(255, 0, 0)"
Biggleswade,52.085111,-0.267906,Biggleswade,River Ivel,0.476,"rgba(0, 204, 0)"
Tamworth,52.631289,-1.697508,Lady Bridge,River Tame,1.296,"rgba(255, 0, 0)"
Rase at Bishopbridge,53.406624,-0.44906,Bishopbridge,Ancholme,1.59,"rgba(255, 0, 0)"
Croston,53.655882,-2.760429,Croston,Yarrow,1.3,"rgba(255, 0, 0)"
Rodington,52.723597,-2.609812,Rodington,River Roden,1,"rgba(255, 0, 0)"
Lechlade,51.692891,-1.672984,Lechlade On Thames,Leach,0.48,"rgba(0, 204, 0)"
Sea Cut at Scarborough,54.301579,-0.423296,Scalby Mills,River Sea Cut,0.368,"rgba(0, 204, 0)"
Doncaster,53.529564,-1.141573,Bentley,River Don,3.05,"rgba(255, 0, 0)"
Arthington,53.903016,-1.552492,Weeton,River Wharfe,3.3,"rgba(255, 0, 0)"
Horseshoe Bridge,53.113634,-0.600069,Bassingham,Brant,1.99,"rgba(255, 0, 0)"
Greenholme,54.914677,-2.803045,Greenholme,River Irthing,0.861,"rgba(255, 0, 0)"
Williton,51.159618,-3.320133,Williton,Monksilver Stream,0.5,"rgba(255, 194, 0)"
Cundy Cross,53.551557,-1.439985,Cundy Cross,River Dearne,2.2,"rgba(255, 0, 0)"
Broom,52.180399,-1.87505,Broom,River Arrow,0.488,"rgba(0, 204, 0)"
Bath Destructor Bridge,51.38438,-2.37652,Twerton,River Avon,0.806,"rgba(255, 0, 0)"
Mint Bridge,54.343531,-2.733522,Kendal,Mint,1.2,"rgba(255, 0, 0)"
Lindfield Bridge,51.021082,-0.073715,Lindfield,Ouse [So],1.9,"rgba(255, 0, 0)"
Highfield,53.373245,-1.46412,Sheffield,River Sheaf,0.85,"rgba(255, 0, 0)"
Rutherford Bridge,54.50509,-1.948998,Boldron,River Greta,1.5,"rgba(255, 0, 0)"
Ribchester School,53.811176,-2.531031,Ribchester,Ribble,4.41,"rgba(255, 0, 0)"
Adwick le Street White Cross Bridge,53.57617,-1.176242,Adwick le Street,Ea Beck,0.999,"rgba(255, 0, 0)"
Armley,53.801534,-1.574829,Leeds,River Aire,2.12,"rgba(255, 0, 0)"
Upavon East,51.302514,-1.809882,Rushall,River Avon,0.6,"rgba(255, 194, 0)"
North Muskham,53.131855,-0.803653,North Muskham,River Trent,3.3,"rgba(255, 0, 0)"
Kirby Wiske,54.253557,-1.424704,Kirby Wiske,River Wiske,2,"rgba(255, 0, 0)"
Purton Stoke,51.61322,-1.87404,Purton Stoke,Key,1.89,"rgba(255, 0, 0)"
Cottingley Bridge,53.838116,-1.828238,Cottingley,River Aire,1.7,"rgba(255, 0, 0)"
Croxley Green,51.645553,-0.436992,Croxley Green,Gade,1.1,"rgba(255, 0, 0)"
York Wolfe Avenue,53.962611,-1.057605,York,Tang Hall Beck,2.99,"rgba(255, 0, 0)"
Towcester,52.135918,-0.996201,Towcester,River Tove,0.85,"rgba(255, 0, 0)"
Beckenham Park,51.422952,-0.007672,Grove Park,Ravensbourne,1.579,"rgba(255, 0, 0)"
Passfield Mill,51.101202,-0.825956,Standford,Wey,1.358,"rgba(255, 0, 0)"
Chinbrook Park,51.431438,0.027081,Grove Park,Quaggy,0.7,"rgba(255, 194, 0)"
Court Place Farm,50.8568,-3.058949,Yarcombe,River Yarty,0.8,"rgba(255, 0, 0)"
Germansweek,50.726814,-4.203103,Germansweek,Wolf,0.876,"rgba(255, 0, 0)"
Stoodleigh,50.949994,-3.506375,Stoodleigh,River Exe,2.5,"rgba(255, 0, 0)"
Dovecote Hill,54.646651,-1.672987,Bishop Auckland,River Gaunless,2.2,"rgba(255, 0, 0)"
Langham,51.971749,0.940326,Thorington Street,River Stour,1.57,"rgba(255, 0, 0)"
Theale,51.432753,-1.067068,Theale,Kennet,1.05,"rgba(255, 0, 0)"
Viking Recorder,53.958791,-1.085536,York,River Ouse,1.9,"rgba(255, 0, 0)"
North Mymms,51.718066,-0.219123,Water End,Mimmshall Brook,1.5,"rgba(255, 0, 0)"
Pillaton,50.440154,-4.298799,Pillaton,River Lynher,1.5,"rgba(255, 0, 0)"
Jeffy Knotts,54.422024,-2.98839,Jeffy Knotts,River Brathay,1.754,"rgba(255, 0, 0)"
Lodge Farm,51.263973,-0.950093,North Warnborough,Whitewater,0.439,"rgba(0, 204, 0)"
Creeting,52.167176,1.05147,Creeting St Mary,Stonham Watercourse,0.81,"rgba(255, 0, 0)"
Bramham Screens,53.880307,-1.355437,Bramham,Bramham Beck,1,"rgba(255, 0, 0)"
Chipping Sodbury,51.542061,-2.385953,Chipping Sodbury,Bristol Frome,2.1,"rgba(255, 0, 0)"
Wembley,51.562196,-0.27948,Wembley,Wealdstone Brook,1.8,"rgba(255, 0, 0)"
Durham New Elvet Bridge,54.776573,-1.57257,Durham,River Wear,2.63,"rgba(255, 0, 0)"
Keswick Campsite,54.601275,-3.1492,Keswick,River Greta,1.31,"rgba(255, 0, 0)"
Leintwardine,52.359087,-2.876144,Leintwardine,River Teme,1.2,"rgba(255, 0, 0)"
Bradford on Avon,51.34297,-2.266608,Westwood,River Avon,1.4,"rgba(255, 0, 0)"
Swanage Prospect Farm Swan Brook,50.613227,-1.971617,Swanage,Swan Brook,0.65,"rgba(255, 194, 0)"
Fiddlers Ferry,53.374184,-2.653505,Penketh,Mersey,3.705,"rgba(255, 0, 0)"
Hynam Bridge,54.894613,-2.686767,Castle Carrock,Gelt,0.741,"rgba(255, 194, 0)"
Rockhay Bridge,50.843021,-4.122236,Sheepwash,River Torridge,3.2,"rgba(255, 0, 0)"
Ugly Dub,55.181833,-2.45222,Kielder reservoir,River North Tyne,1.3,"rgba(255, 0, 0)"
Lamorbey Park,51.440152,0.113674,Sidcup,Shuttle Tributary  Cray,1,"rgba(255, 0, 0)"
Aylesbury,51.817792,-0.801624,Aylesbury,Bear Brook,2,"rgba(255, 0, 0)"
Huddersfield Longroyd Bridge,53.641316,-1.795095,Huddersfield,Colne,1.23,"rgba(255, 0, 0)"
Blunham,52.144358,-0.316453,Blunham,River Ivel,0.549,"rgba(255, 194, 0)"
Leatherhead,51.294985,-0.336089,Leatherhead,Mole,2.4,"rgba(255, 0, 0)"
Molingey,50.311776,-4.800075,London Apprentice,St Austell River,1.099,"rgba(255, 0, 0)"
Temple,52.326416,0.578416,Icklingham,Lark,0.619,"rgba(255, 194, 0)"
Lower Stratton,51.569689,-1.735909,Stratton St Margaret,Cole,2.815,"rgba(255, 0, 0)"
Bat Bridge,54.145714,-1.36005,Cundall,Cundall Beck,0.256,"rgba(0, 204, 0)"
Hayhurst Bridge,53.258272,-2.51651,Northwich,Weaver,1.34,"rgba(255, 0, 0)"
Whitwell,51.876889,-0.28128,Whitwell,Mimram,0.4,"rgba(0, 204, 0)"
Killington,54.310113,-2.582471,Killington,Lune,2.3,"rgba(255, 0, 0)"
Barton on Humber,53.689056,-0.441274,Barton-Upon-Humber,Barton Haven,1.2,"rgba(255, 0, 0)"
Loudwater,51.609179,-0.699391,Loudwater,Wye,2.1,"rgba(255, 0, 0)"
Grinton Bridge,54.381959,-1.929135,Grinton,River Swale,1.5,"rgba(255, 0, 0)"
Panshanger,51.803418,-0.141267,Tewin,Mimram,0.8,"rgba(255, 0, 0)"
Delph,53.566913,-2.021999,Delph,Tame,0.293,"rgba(0, 204, 0)"
Old Windsor Lock,51.463198,-0.569077,Old Windsor,Thames,0.349,"rgba(0, 204, 0)"
Sakeham Weir,50.957409,-0.265959,Wineham,Adur,1.35,"rgba(255, 0, 0)"
Buntingford,51.946826,-0.016987,Buntingford,Rib,1.6,"rgba(255, 0, 0)"
Culham Lock,51.6506,-1.267131,Culham,Thames,0.298,"rgba(0, 204, 0)"
Haweswater Reservoir,54.534679,-2.769772,Haweswater Reservoir,Haweswater Reservoir,31.312,"rgba(255, 0, 0)"
Little Woolden Hall,53.440813,-2.475817,Glazebrook,Glaze Brook,1.9,"rgba(255, 0, 0)"
Matson Place,51.85211,-2.233328,Gloucester,Sud Brook,0.457,"rgba(0, 204, 0)"
Moreton,51.739256,0.219552,Moreton,Cripsey Brook,1.5,"rgba(255, 0, 0)"
Forest Row,51.095381,0.052195,Forest Row,Medway,1.3,"rgba(255, 0, 0)"
Thrupp,51.840425,-1.30005,Thrupp,Cherwell,2.12,"rgba(255, 0, 0)"
Benson Lock,51.617191,-1.116011,Benson,Thames,0.309,"rgba(0, 204, 0)"
Sidbury,50.717781,-3.219793,Sidbury,River Sid,1,"rgba(255, 0, 0)"
Huntingfield,52.318638,1.425054,Huntingfield,Huntingfield Watercourse,2.7,"rgba(255, 0, 0)"
Keynsham US,51.419019,-2.487954,Keynsham,River Avon,5.863,"rgba(255, 0, 0)"
Wakefield Westgate,53.680366,-1.509072,Wakefield,Ings Beck,1.27,"rgba(255, 0, 0)"
Lydney,51.72971,-2.534804,Lydney,River Lyd,0.7,"rgba(255, 194, 0)"
Henthorn,53.848003,-2.424337,Great Mitton,Ribble,2.5,"rgba(255, 0, 0)"
Cropple Howe,54.36799,-3.339036,Eskdale Green,Esk (Cumbria),1.88,"rgba(255, 0, 0)"
Holt Mill Bridge,53.693137,-2.257828,Waterfoot,Irwell,0.395,"rgba(0, 204, 0)"
Fenny Castle,51.191655,-2.719186,Godney,River Sheppey,0.439,"rgba(0, 204, 0)"
The Causeway,51.824551,-2.297854,Gloucester,Dimore Brook,0.542,"rgba(255, 194, 0)"
Padiham Town Centre,53.800228,-2.314843,Padiham,River Calder,2.565,"rgba(255, 0, 0)"
Langworth,53.275665,-0.402812,Langworth,Barlings Eau,2.41,"rgba(255, 0, 0)"
Maidstone,51.271553,0.518493,Maidstone,Medway,1.25,"rgba(255, 0, 0)"
Chesterfield Park Road Bridge,53.232965,-1.430996,Chesterfield,River Hipper,0.82,"rgba(255, 0, 0)"
Bradworthy,50.90173,-4.392867,Bradworthy,River Waldon,1,"rgba(255, 0, 0)"
Little Walsingham,52.891548,0.874601,Little Walsingham,River Stiffkey,0.53,"rgba(255, 194, 0)"
Kildwick,53.907443,-1.984735,Kildwick,River Aire,1.45,"rgba(255, 0, 0)"
Skibeden Beck,53.960831,-2.011844,Skipton,Haw Beck,1.6,"rgba(255, 0, 0)"
Bamber Bridge,53.724643,-2.670129,Bamber Bridge,Lostock,1.6,"rgba(255, 0, 0)"
Stoke Bottom Farm,51.230768,-2.487678,Nettlebridge,Mells River,0.3,"rgba(0, 204, 0)"
Knettishall,52.390173,0.871573,Knettishall,Little Ouse,0.295,"rgba(0, 204, 0)"
Port Isaac,50.589157,-4.830228,Port Isaac,Coastal Stream,0.435,"rgba(0, 204, 0)"
Cardington,52.126329,-0.429108,Bedford,River Great Ouse,24.083,"rgba(255, 0, 0)"
Waterhouses,53.04899,-1.879122,Waterhouses,River Hamps,0.466,"rgba(0, 204, 0)"
New Bridge,51.022515,-0.477328,Newpound Common,Arun,10,"rgba(255, 0, 0)"
Gwithian,50.229594,-5.388678,Gwithian,Red,1.09,"rgba(255, 0, 0)"
Bovey Parke,50.595603,-3.682853,Bovey Tracey,River Bovey,1.35,"rgba(255, 0, 0)"
Middleton,54.620104,-2.080488,Middleton-In-Teesdale,River Tees,1.8,"rgba(255, 0, 0)"
Brampton Sluice,52.319854,-0.205625,Brampton,River Great Ouse,0.301,"rgba(0, 204, 0)"
Galgate,53.991743,-2.792162,Galgate,Conder,1.7,"rgba(255, 0, 0)"
Sladesbridge,50.509303,-4.80481,Sladesbridge,River Camel,1.5,"rgba(255, 0, 0)"
Frilsham,51.453438,-1.228555,Frilsham,Pang,0.48,"rgba(0, 204, 0)"
Langrick Bridge,53.009861,-0.11602,Hedgehog Bridge,Witham,1.439,"rgba(255, 0, 0)"
Crakehill,54.153752,-1.350739,Cundall,River Swale,3,"rgba(255, 0, 0)"
Wantage,51.588848,-1.431205,Wantage,Letcombe Brook,0.8,"rgba(255, 0, 0)"
Hungerford Dun,51.414788,-1.539372,Hungerford,Dun,0.5,"rgba(255, 194, 0)"
Sedgwick,54.280023,-2.755861,Sedgwick,Kent,2.5,"rgba(255, 0, 0)"
Shaw,51.410964,-1.325174,Donnington,Lambourn,0.36,"rgba(0, 204, 0)"
Huish Episcopi PS,51.031606,-2.799018,Langport,Longload Main Drain,2.057,"rgba(255, 0, 0)"
Walthamstow,51.603395,-0.012274,Walthamstow,Ching Brook,2,"rgba(255, 0, 0)"
"Yeading, Brookside Road",51.518702,-0.391757,Southall,Yeading Brook,2.08,"rgba(255, 0, 0)"
Marsh Farm,51.448604,-0.339937,Twickenham,Crane,0.25,"rgba(0, 204, 0)"
Rawcliffe,53.977937,-1.118128,Rawcliffe,Blue Beck,1.009,"rgba(255, 0, 0)"
"Pilling, Broadfleet",53.932062,-2.905476,Pilling,Broadfleet,2.754,"rgba(255, 0, 0)"
Donyatt,50.921842,-2.940546,Donyatt,River Isle,1.2,"rgba(255, 0, 0)"
Staines Trading Estate,51.437123,-0.512241,Staines,Colne,1.8,"rgba(255, 0, 0)"
Polstead,52.003937,0.890968,Polstead,River Box,0.68,"rgba(255, 194, 0)"
Beckenham,51.406058,-0.024366,Beckenham,The Beck,0.85,"rgba(255, 0, 0)"
Walton,51.3919,-0.421389,Walton-On-Thames,Thames,3.6,"rgba(255, 0, 0)"
Ilkley,53.929346,-1.83091,Ilkley,River Wharfe,2.9,"rgba(255, 0, 0)"
Pyotts Bridge,51.278294,-1.045224,Old Basing,Loddon,1.35,"rgba(255, 0, 0)"
Orton Sluice,52.560077,-0.281816,Peterborough,Nene (Orton - Wash),2.26,"rgba(255, 0, 0)"
Cummersdale,54.865626,-2.944447,Cummersdale,River Caldew,2.2,"rgba(255, 0, 0)"
Carshalton Ponds,51.367034,-0.162812,Carshalton,Wandle,0.425,"rgba(0, 204, 0)"
Blackwater Bridge,51.330889,-0.775604,Blackwater,River Blackwater,2,"rgba(255, 0, 0)"
Portmarsh Lane,51.074943,-4.050919,Barnstaple,Coney Gut,0.311,"rgba(0, 204, 0)"
Hexham Tanners Row In screen,54.973809,-2.105629,Hexham,Cockshaw Burn,0.03,"rgba(0, 204, 0)"
Springfield,51.736622,0.479442,Chelmsford,River Chelmer,0.75,"rgba(255, 194, 0)"
Calgarth (Trout beck Bridge),54.390814,-2.931474,Calgarth (Trout beck Bridge),Trout Beck,0.713,"rgba(255, 194, 0)"
Fairford,51.709394,-1.783971,Fairford,Coln,1.08,"rgba(255, 0, 0)"
Colliters Brook,51.427707,-2.63391,Bishopsworth,Colliters Brook,0.456,"rgba(0, 204, 0)"
Briantspuddle,50.739761,-2.25333,Briantspuddle,River Piddle,0.613,"rgba(255, 194, 0)"
Scrasebridge,51.006255,-0.079888,Lindfield,Ouse [So],1.44,"rgba(255, 0, 0)"
Bull Gill,54.732405,-3.405386,Allerby,River Ellen,1.5,"rgba(255, 0, 0)"
Abingdon,51.684602,-1.282696,Abingdon,Stert,1.8,"rgba(255, 0, 0)"
Haydon Bridge,54.976681,-2.226498,Haydon Bridge,River South Tyne,2.7,"rgba(255, 0, 0)"
Church Warsop,53.206134,-1.165417,Market Warsop,River Meden,0.41,"rgba(0, 204, 0)"
Clifford Bridge,50.695696,-3.739489,Drewsteignton,River Teign,1.8,"rgba(255, 0, 0)"
Knaresborough,54.008443,-1.47066,Knaresborough,River Nidd,1.3,"rgba(255, 0, 0)"
Winchelsea Strand Bridge,50.923434,0.72054,Winchelsea Beach,Brede,2.5,"rgba(255, 0, 0)"
Boscastle New Mills,50.691075,-4.694207,Boscastle,River Valency,1.84,"rgba(255, 0, 0)"
Kingsclere,51.325621,-1.249358,Kingsclere,Kingsclere Brook,0.761,"rgba(255, 194, 0)"
Farnborough,51.29741,-0.739058,Mytchett,River Blackwater,1.6,"rgba(255, 0, 0)"
Mardock,51.814817,0.020302,Wareside,Ash (Hertfordshire),0.57,"rgba(255, 194, 0)"
Throop,50.763832,-1.84203,Throop,River Stour,1.2,"rgba(255, 0, 0)"
South Cerney,51.673897,-1.934146,South Cerney,Churn,1.31,"rgba(255, 0, 0)"
Warwick,52.284932,-1.562658,Warwick,River Avon,1.463,"rgba(255, 0, 0)"
Hall Place,51.445998,0.158543,Coldblow,Cray,0.75,"rgba(255, 194, 0)"
Vauxhall Bridge,51.29566,1.088238,Hales Place,Great Stour,1.2,"rgba(255, 0, 0)"
Heugh Mill,55.038816,-1.859136,Stamfordham,River Pont,0.64,"rgba(255, 194, 0)"
Walsden,53.690792,-2.101414,Walsden,River Calder,0.38,"rgba(0, 204, 0)"
Clyst Honiton,50.733158,-3.437637,Clyst Honiton,River Clyst,1.9,"rgba(255, 0, 0)"
Manchester Racecourse,53.499526,-2.271756,Broughton,Irwell,2.7,"rgba(255, 0, 0)"
Onibury,52.405995,-2.80328,Onibury,River Onny,1.7,"rgba(255, 0, 0)"
Toddington,51.999754,-1.952083,Toddington,River Isbourne,0.53,"rgba(255, 194, 0)"
Clanfield,51.719421,-1.588977,Clanfield,Clanfield Brook,1.025,"rgba(255, 0, 0)"
Wedderburn Bridge,51.909034,-2.32673,Highleadon,River Leadon,2,"rgba(255, 0, 0)"
Sheepbridge,51.381826,-0.966655,Swallowfield,Loddon,0.89,"rgba(255, 0, 0)"
Bonehurst Bridge,51.186743,-0.163694,Horley,Burstow Stream,3.3,"rgba(255, 0, 0)"
Parbold,53.588789,-2.773605,Newburgh,Douglas,2.925,"rgba(255, 0, 0)"
Broadwey,50.653725,-2.473258,Weymouth,River Wey,0.35,"rgba(0, 204, 0)"
Eastington,51.753386,-2.322244,Stroud,Frome (MI),0.857,"rgba(255, 0, 0)"
Langford Village,51.895439,-1.13585,Launton,Langford Brook (Bicester),1.309,"rgba(255, 0, 0)"
Blewbury,51.573061,-1.233747,Blewbury,Mill Brook,0.24,"rgba(0, 204, 0)"
Shepperton Lock,51.382892,-0.458071,Weybridge,Thames,0.281,"rgba(0, 204, 0)"
Stoneham Lane,50.953881,-1.370394,Swaythling,Monks Brook,0.75,"rgba(255, 194, 0)"
Whetstone,52.553447,-1.171951,Whetstone,Whetstone Brook,1.1,"rgba(255, 0, 0)"
Moreton,51.988876,-1.697906,Moreton in Marsh,Evenlode,1.21,"rgba(255, 0, 0)"
Cassington Weir A,51.786053,-1.351198,Cassington,Evenlode,0.9,"rgba(255, 0, 0)"
Sandon Bridge,51.720457,0.539834,Sandon,Sandon Brook,0.75,"rgba(255, 194, 0)"
Pool Bridge,53.905078,-1.630095,Pool,River Wharfe,2.9,"rgba(255, 0, 0)"
Shipton,51.861678,-1.594363,Shipton Under Wychwood,Evenlode,2.02,"rgba(255, 0, 0)"
Parsons Street,51.207333,-3.596358,Porlock,Hawkcombe Stream,0.5,"rgba(255, 194, 0)"
Dronfield,53.302721,-1.472506,Dronfield,River Drone,0.5,"rgba(255, 194, 0)"
Lamberhurst,51.1015,0.392574,Lamberhurst,Teise,1.5,"rgba(255, 0, 0)"
Slade Brook,52.377799,-0.720415,Barton Seagrave,Ise,1.3,"rgba(255, 0, 0)"
Darton,53.58418,-1.52866,Darton,River Dearne,0.613,"rgba(255, 194, 0)"
Glenfield,52.648317,-1.215391,Glenfield,Rothley Brook,1.15,"rgba(255, 0, 0)"
Shalford,51.220824,-0.569459,Shalford,Tillingbourne,0.526,"rgba(255, 194, 0)"
Lowdham,53.024857,-1.028024,Epperstone,Dover Beck,0.75,"rgba(255, 194, 0)"
Portinscale,54.604556,-3.159541,Portinscale,River Derwent,1.327,"rgba(255, 0, 0)"
Knighton Side,51.436872,-1.577706,Whittonditch,Kennet,0.504,"rgba(255, 194, 0)"
Shillingthorpe,52.68874,-0.412477,Greatford,West Glen (To Kates Bridge),1.18,"rgba(255, 0, 0)"
Roxton,52.166195,-0.309298,Roxton,River Great Ouse,1.04,"rgba(255, 0, 0)"
Upavon West,51.302514,-1.809882,Upavon,River Avon,0.7,"rgba(255, 194, 0)"
Ashford in the Water,53.223665,-1.727504,Ashford in the Water,River Wye,0.75,"rgba(255, 194, 0)"
Hannington Bridge,51.663588,-1.749677,Hannington Wick,Thames,3.81,"rgba(255, 0, 0)"
Threadfold Way,53.613958,-2.427881,Eagley,Eagley Brook,0.386,"rgba(0, 204, 0)"
Abingdon Lock,51.670388,-1.268257,Abingdon,Thames,0.17,"rgba(0, 204, 0)"
Stockton Primrose Hill,54.574258,-1.316493,Stockton On Tees,Lustrum Beck,5.46,"rgba(255, 0, 0)"
Ashburton Lower,50.5162,-3.757538,Ashburton,River Ashburn,0.372,"rgba(0, 204, 0)"
Nunnington,54.215889,-0.969759,Nunnington,River Riccal,0.44,"rgba(0, 204, 0)"
Allington,52.94938,-0.702125,Allington,Foston Beck,0.85,"rgba(255, 0, 0)"
Catcliffe,53.390594,-1.361999,Catcliffe,River Rother,26.118,"rgba(255, 0, 0)"
Castle Bytham,52.755941,-0.534509,Castle Bytham,West Glen (To Kates Bridge),0.99,"rgba(255, 0, 0)"
Craigshill Wood,50.465604,-4.55955,St Neot,St Neot River,0.574,"rgba(255, 194, 0)"
South Bridge,52.230338,-0.897436,Northampton,Nene,1.202,"rgba(255, 0, 0)"
Yiewsley,51.509078,-0.47713,Yiewsley,Frays,1.2,"rgba(255, 0, 0)"
Cambridge Baits Bite,52.236542,0.176925,Milton,River Cam,0.294,"rgba(0, 204, 0)"
Harraby Green Business Park,54.879957,-2.917974,Harraby Green Carlisle,Petteril,0.705,"rgba(255, 194, 0)"
Alton High Street,51.149557,-0.976568,Alton,Wey,0.37,"rgba(0, 204, 0)"
"Seaton Mill, Barepot, Workington",54.650538,-3.52206,"Seaton Mill, Barepot, Workington",River Derwent,0.96,"rgba(255, 0, 0)"
Hundred House Bridge,50.950221,0.630976,Broadland Row,Royal Military Canal Outflow Sea,0.433,"rgba(0, 204, 0)"
Bishop Monkton,54.090598,-1.497502,Bishop Monkton,Bishop Monkton Beck,0.4,"rgba(0, 204, 0)"
Tilford,51.181979,-0.750222,Tilford,Wey,1.4,"rgba(255, 0, 0)"
Beeding Bridge,50.882836,-0.306828,Upper Beeding,Adur,3.322,"rgba(255, 0, 0)"
Stanford Vale,51.632965,-1.505814,Stanford In The Vale,Ock,0.62,"rgba(255, 194, 0)"
Dacre Bridge,54.628797,-2.837846,Dacre,Dacre Beck,1.2,"rgba(255, 0, 0)"
Weldon Flood Storage Reservoir,52.493886,-0.649292,Weldon,Willow Brook,3.64,"rgba(255, 0, 0)"
Cogenhoe,52.246264,-0.779863,Cogenhoe,Nene (N'hampton-Wollaston),0.605,"rgba(255, 194, 0)"
Morwick,55.333528,-1.631891,Morwick,River Coquet,2.7,"rgba(255, 0, 0)"
Whetstone Bridge,51.667039,-1.816893,Marston Meysey,Marston Meysey Brook,1.273,"rgba(255, 0, 0)"
Keadby,53.591975,-0.738178,Keadby,River Trent,6.6,"rgba(255, 0, 0)"
Riseley,52.249147,-0.485347,Riseley,River Kym,1.4,"rgba(255, 0, 0)"
Brushford,51.021855,-3.53136,Brushford,River Barle,1.5,"rgba(255, 0, 0)"
Webbs Hole Sluice,52.320879,-0.002271,Over,Swavesey Drain,1.215,"rgba(255, 0, 0)"
Dutlas,52.394857,-3.160345,Dutlas,River Teme,0.6,"rgba(255, 194, 0)"
Lanchester Front Street,54.82499,-1.744671,Lanchester,Smallhope Burn,1.2,"rgba(255, 0, 0)"
Fotheringhay,52.526819,-0.428685,Fotheringhay,Willow Brook,0.501,"rgba(255, 194, 0)"
Pimlico Brook,53.877796,-2.387601,Clitheroe,Pimlico Brook,0.675,"rgba(255, 194, 0)"
Perrancoombe,50.340195,-5.15746,Perranporth,Perrancombe Stream,1,"rgba(255, 0, 0)"
Thornton Heath,51.394765,-0.097302,South Norwood,Norbury Brk,1.3,"rgba(255, 0, 0)"
Tamarstone Bridge,50.823657,-4.438698,Kingford,River Tamar,1.8,"rgba(255, 0, 0)"
"Ickenham, Swakeleys Road",51.565274,-0.452775,Ickenham,Pinn,1.125,"rgba(255, 0, 0)"
Tenbury,52.313207,-2.591539,Tenbury Wells,River Teme,4.5,"rgba(255, 0, 0)"
Kenwith Castle,51.023856,-4.236897,Kenwith,Kenwith Stream,0.575,"rgba(255, 194, 0)"
Kingscroft Road,51.85196,-2.18652,Gloucester,Wotton Brook,2,"rgba(255, 0, 0)"
Selby Lock,53.782406,-1.057504,Selby,River Ouse,3.776,"rgba(255, 0, 0)"
Crudgington,52.754258,-2.534083,Crudgington,River Strine,0.788,"rgba(255, 194, 0)"
West Marsh Washlands,53.707591,-1.056828,Hirst Courtney,West Bank Pond,1,"rgba(255, 0, 0)"
Great Corby,54.890119,-2.830743,Wetheral,Eden,3.36,"rgba(255, 0, 0)"
Shipley Gate,53.003454,-1.310004,Shipley,River Erewash,2.8,"rgba(255, 0, 0)"
Wyre Piddle,52.126787,-2.056054,Wyre Piddle,Piddle Brook,0.636,"rgba(255, 194, 0)"
Hady Hill,53.233706,-1.418671,Chesterfield,River Rother,1.071,"rgba(255, 0, 0)"
"Hillingdon, Charville Lane",51.541775,-0.418198,Hillingdon,Yeading Brook,2,"rgba(255, 0, 0)"
Taw Bridge,50.845457,-3.886253,Brushford,River Taw,1.1,"rgba(255, 0, 0)"
Riding Mill,54.952174,-1.959366,Riding Mill,River Tyne,2.1,"rgba(255, 0, 0)"
Hodder Place,53.855184,-2.451318,Great Mitton,Hodder,1.9,"rgba(255, 0, 0)"
Vallis,51.240687,-2.349087,Great Elm,Mells River,1.5,"rgba(255, 0, 0)"
Clavering,51.965459,0.146003,Clavering,Stort,1,"rgba(255, 0, 0)"
Bampton Bridge,50.989182,-3.484134,Bampton,River Batherm,0.9,"rgba(255, 0, 0)"
Milford,52.791503,-2.038506,Milford,River Sow,1.986,"rgba(255, 0, 0)"
Pishiobury Brook,51.795404,0.134177,Harlow,Pishiobury Brook,1.93,"rgba(255, 0, 0)"
Clomoney Way,51.881479,-2.206851,Gloucester,Horsbere Brook,2,"rgba(255, 0, 0)"
Boulters Lock,51.532713,-0.699466,Taplow,Thames,3.51,"rgba(255, 0, 0)"
Knowle Green,51.430935,-0.496618,Staines,Ash (Surrey),0.6,"rgba(255, 194, 0)"
Portsmouth Lennox Road,53.732082,-2.153506,Portsmouth,River Calder,1,"rgba(255, 0, 0)"
Ensbury,50.768235,-1.876842,Ensbury,River Stour,1.913,"rgba(255, 0, 0)"
River Freshney Grimsby,53.574576,-0.108253,Great Coates,Laceby Beck,0.78,"rgba(255, 194, 0)"
Elvington Sluices,53.917956,-0.929601,Elvington,River Derwent,6.25,"rgba(255, 0, 0)"
Ewood,53.731625,-2.490617,Lower Darwen,Darwen,1.25,"rgba(255, 0, 0)"
West Sedgemoor PS,51.053328,-2.891431,Stathe,River Parrett,7.613,"rgba(255, 0, 0)"
London Colney,51.719476,-0.289861,London Colney,Colne,1.5,"rgba(255, 0, 0)"
Burnbanks,54.536126,-2.762643,Bampton,Haweswater Beck,1,"rgba(255, 0, 0)"
"Luton, Stockingstone Road",51.896722,-0.419615,Stopsley,Lee (Upper),2.1,"rgba(255, 0, 0)"
Titley Mill,52.220498,-2.984666,Titley Mill,Arrow,1,"rgba(255, 0, 0)"
Eynsham Lock,51.774692,-1.356854,Swinford,Thames,0.371,"rgba(0, 204, 0)"
Dorchester,51.641035,-1.163757,Dorchester,Thame,1.376,"rgba(255, 0, 0)"
Hinton On Green,52.064842,-1.966688,Hinton On The Green,River Isbourne,2.65,"rgba(255, 0, 0)"
Witton Park,54.67286,-1.733251,Witton Park,River Wear,3.4,"rgba(255, 0, 0)"
Myton-On-Swale,54.094667,-1.334108,Myton-On-Swale,River Swale,3.436,"rgba(255, 0, 0)"
Truscott,50.639598,-4.407654,Launceston,River Kensey,1.2,"rgba(255, 0, 0)"
North Drain,51.199702,-2.861707,Burtle,North Drain,2.042,"rgba(255, 0, 0)"
Redbridge,52.492126,0.938899,Shropham,Thet,1.43,"rgba(255, 0, 0)"
Gurney Street,53.481022,-2.212509,Ancouts,Medlock,0.438,"rgba(0, 204, 0)"
Ashton Vale,51.439017,-2.62578,Leigh Woods,River Avon,1.16,"rgba(255, 0, 0)"
Roall Ings,53.721999,-1.149345,Salt end,Roall Dyke,0.96,"rgba(255, 0, 0)"
Wadesmill,51.839044,-0.027533,Wadesmill,Rib,1.6,"rgba(255, 0, 0)"
Parkend,51.764493,-2.556805,Parkend,River Lyd,0.6,"rgba(255, 194, 0)"
Tubbs Bottom,51.543699,-2.464859,Iron Acton,Bristol Frome,0.591,"rgba(255, 194, 0)"
North Fareham weir,50.863667,-1.166426,Wallington,Wallington,1.39,"rgba(255, 0, 0)"
"Malton, A64 Road Bridge",54.146645,-0.759757,Old Malton,River Derwent,3.095,"rgba(255, 0, 0)"
Sydling St Nicholas,50.795256,-2.522871,Sydling St Nicholas,Sydling Water,0.255,"rgba(0, 204, 0)"
Uckfield Mill upstream,50.968752,0.097884,Uckfield,Uck,1.3,"rgba(255, 0, 0)"
St Ives Consols Farm,50.206022,-5.49846,St Ives,River Stennack,0.659,"rgba(255, 194, 0)"
Squires Bridge,53.329892,-0.644055,Thorpe Le Fallows,Till,2.87,"rgba(255, 0, 0)"
Woolstone Mill,50.788684,-4.516349,Titson,River Neet,1.3,"rgba(255, 0, 0)"
Lambourn,51.508084,-1.530219,Lambourn,Lambourn,1.1,"rgba(255, 0, 0)"
"Stock Beck, Jewsons Yard",54.3317,-2.736971,Kendal,Stock Beck,0.422,"rgba(0, 204, 0)"
Lea Bridge,51.567832,-0.051025,Stoke Newington,Lee,6.1,"rgba(255, 0, 0)"
Abridge,51.65178,0.119024,Abridge,Roding,1.9,"rgba(255, 0, 0)"
Midelney,51.008129,-2.832096,Langport,River Isle,3.019,"rgba(255, 0, 0)"
Dowsby Fen,52.849491,-0.275979,Gosberton Clough,South Forty Foot,2.83,"rgba(255, 0, 0)"
Guithavon Valley,51.801923,0.634694,Witham,River Brain,0.61,"rgba(255, 194, 0)"
Ripon Ure Bank,54.143859,-1.515258,Sharow,River Ure,0.89,"rgba(255, 0, 0)"
Wootton Park,52.212737,-0.938853,Rothersthorpe,Wootton Brook,1.09,"rgba(255, 0, 0)"
Willowbank,51.559236,-0.484082,Denham,Colne,1.1,"rgba(255, 0, 0)"
Warkworth,55.348353,-1.608289,Warkworth,River Coquet,0.845,"rgba(255, 0, 0)"
Sheffield Station,53.376972,-1.463457,Sheffield,Porter Brook,0.3,"rgba(0, 204, 0)"
Chiselborough,50.92686,-2.768537,Chiselborough,River Parrett,1.8,"rgba(255, 0, 0)"
Sheffield Blackburn,53.429981,-1.423463,Rotherham,Blackburn Brook,1.8,"rgba(255, 0, 0)"
Simonsbath,51.13829,-3.758506,Simonsbath,River Barle,1,"rgba(255, 0, 0)"
Clipstone Brook,51.924207,-0.634231,Leighton Buzzard,Clipstone Brook,1.47,"rgba(255, 0, 0)"
Luxulyan,50.390824,-4.753487,Luxulyan,Par River,1.4,"rgba(255, 0, 0)"
Skinningrove,54.567493,-0.898737,Skinningrove,Kilton Beck,5.1,"rgba(255, 0, 0)"
Ebley Mill,51.740019,-2.24687,Stroud,River Frome,0.95,"rgba(255, 0, 0)"
Addingham,53.939721,-1.862096,Langbar,River Wharfe,1.87,"rgba(255, 0, 0)"
Boxford,52.028438,0.858403,Boxford,River Box,1.77,"rgba(255, 0, 0)"
Long Melford,52.080294,0.724408,Long Melford,Chad Brook,0.72,"rgba(255, 194, 0)"
Newnham Park,50.401002,-4.039339,Plympton,Tory Brook,1.16,"rgba(255, 0, 0)"
Eastville,51.470324,-2.566101,Eastville,Bristol Frome,8.7,"rgba(255, 0, 0)"
Iwood,51.363932,-2.788918,Congresbury,Congresbury Yeo,1,"rgba(255, 0, 0)"
Ledgard Bridge,53.671578,-1.697228,Mirfield,River Calder,2.5,"rgba(255, 0, 0)"
"Hemel Hempstead, Two Waters Road",51.741057,-0.47337,Hemel Hempstead,Bulbourne,1.5,"rgba(255, 0, 0)"
Chapel Haddlesey,53.730048,-1.128583,Chapel Haddlesey,River Aire,1.34,"rgba(255, 0, 0)"
Tanfield,54.887182,-1.700147,Tanfield,River Team,0.443,"rgba(0, 204, 0)"
Downton Iron Bridge,50.994106,-1.748006,Downton,River Avon,0.652,"rgba(255, 194, 0)"
"Greenford,Costons Lane",51.527366,-0.344873,Greenford,Brent,0.805,"rgba(255, 0, 0)"
Brislington,51.431118,-2.553489,Brislington,Brislington Brook,0.8,"rgba(255, 0, 0)"
Kilgram,54.269289,-1.708806,Thornton Steward,River Ure,2.5,"rgba(255, 0, 0)"
East Stoke,50.681026,-2.189136,East Stoke,River Frome,1.424,"rgba(255, 0, 0)"
Lower Camden,51.411956,0.051097,Bickley,Kyd Brook,1.9,"rgba(255, 0, 0)"
